[
  {
    "name": "Main Street Marijuana - East Vancouver",
    "address": "16219 SE 12th St, Suite 104",
    "city": "Vancouver",
    "state": "WA",
    "zip": "98683",
    "phone": "(360) 984-3881",
    "lat": 45.6204,
    "lng": -122.4961,
    "website": "https://www.mainstmj.com/east-vancouver-direction/",
    "hours": "Daily 8a-10:55p",
    "revenue": 599578,
    "rep": "Scotland Schieber"
  },
  {
    "name": "Greenside Recreational - Des Moines",
    "address": "23407 Pacific Hwy S",
    "city": "Des Moines",
    "state": "WA",
    "zip": "98198",
    "phone": "(206) 878-6470",
    "lat": 47.4063,
    "lng": -122.2966,
    "website": "https://greensiderec.com/dispensaries/des-moines/",
    "hours": "M-F 8a-11:45p",
    "revenue": 384272,
    "rep": "Scotland Schieber"
  },
  {
    "name": "Greener Daze Cannabis (fka Green Day)",
    "address": "945 Washington Way, Suite 121",
    "city": "Longview",
    "state": "WA",
    "zip": "98632",
    "phone": "(360) 703-6050",
    "lat": 46.1382,
    "lng": -122.9382,
    "website": "https://greenerdazecannabis.com/",
    "hours": "Daily 8a-10p",
    "revenue": 379215,
    "rep": "Scotland Schieber"
  },
  {
    "name": "Lucky Leaf Co. - Pasco Rd 68",
    "address": "3501 Rd 68, Ste 104",
    "city": "Pasco",
    "state": "WA",
    "zip": "99301",
    "phone": "(509) 380-0026",
    "lat": 46.2581,
    "lng": -119.1759,
    "website": "https://luckyleaf.co/",
    "hours": "Daily 8a-11p",
    "revenue": 345890,
    "rep": "Scotland Schieber"
  },
  {
    "name": "Uncle Ike's - White Center",
    "address": "9822 15th Ave SW",
    "city": "Seattle",
    "state": "WA",
    "zip": "98106",
    "phone": "(206) 420-5759",
    "lat": 47.5176,
    "lng": -122.3548,
    "website": "https://ikes.com/dispensary-location/outlet-at-white-center",
    "hours": "Daily 8a-11:45p",
    "revenue": 345083,
    "rep": "Ashlea Underwood"
  },
  {
    "name": "Main Street Marijuana - North Vancouver",
    "address": "7908 NE Highway 99",
    "city": "Vancouver",
    "state": "WA",
    "zip": "98665",
    "phone": "(360) 787-7318",
    "lat": 45.6837,
    "lng": -122.6638,
    "website": "https://www.mainstmj.com/",
    "hours": "Daily 8a-10:55p",
    "revenue": 340055,
    "rep": "Scotland Schieber"
  },
  {
    "name": "A Greener Today - Walla Walla",
    "address": "655 W Poplar St",
    "city": "Walla Walla",
    "state": "WA",
    "zip": "99362",
    "phone": "(509) 876-8660",
    "lat": 46.0682,
    "lng": -118.3491,
    "website": "https://agreenertoday.com/stores/walla-walla/",
    "hours": "M-F 8a-10p",
    "revenue": 321783,
    "rep": "Scotland Schieber"
  },
  {
    "name": "The Herbery - Chkalov",
    "address": "330 NE Chkalov Dr, Suite D",
    "city": "Vancouver",
    "state": "WA",
    "zip": "98684",
    "phone": "(360) 776-3001",
    "lat": 45.6248,
    "lng": -122.5379,
    "website": "https://www.theherberynw.com/the-herbery-chkalov-cannabis/menu",
    "hours": "Daily 8a-11p",
    "revenue": 315467,
    "rep": "Jeremy Schmidt"
  },
  {
    "name": "Main Street Marijuana - Downtown",
    "address": "2314 Main St",
    "city": "Vancouver",
    "state": "WA",
    "zip": "98660",
    "phone": "(360) 828-7737",
    "lat": 45.6398,
    "lng": -122.6708,
    "website": "https://www.mainstmj.com/",
    "hours": "Daily 8a-10:55p",
    "revenue": 302073,
    "rep": "Scotland Schieber"
  },
  {
    "name": "Green2Go - Kennewick",
    "address": "214307 E SR 397",
    "city": "Kennewick",
    "state": "WA",
    "zip": "99337",
    "phone": "(509) 420-0000",
    "lat": 46.1796,
    "lng": -119.0367,
    "website": "https://g2grec.com/kennewick/",
    "hours": "Daily 9a-10p",
    "revenue": 297069,
    "rep": "Nancy Drinkard WA"
  },
  {
    "name": "Main Street Marijuana - Orchards",
    "address": "12300 NE Fourth Plain Blvd, Ste B",
    "city": "Vancouver",
    "state": "WA",
    "zip": "98682",
    "phone": "(360) 729-7125",
    "lat": 45.6627,
    "lng": -122.5414,
    "website": "https://www.mainstmj.com/orchards-location/",
    "hours": "Daily 8a-10:55p",
    "revenue": 286741,
    "rep": "Scotland Schieber"
  },
  {
    "name": "Uncle Ando's Wurld of Weed",
    "address": "1905 Johnson Rd",
    "city": "Centralia",
    "state": "WA",
    "zip": "98531",
    "phone": "(360) 736-0564",
    "lat": 46.729,
    "lng": -122.975,
    "website": "https://uncleandos.com/",
    "hours": "Daily 9a-10p",
    "revenue": 284423,
    "rep": "Jeremy Schmidt"
  },
  {
    "name": "Nirvana Cannabis Company - Tri-Cities",
    "address": "4950 Arena Rd",
    "city": "Richland",
    "state": "WA",
    "zip": "99352",
    "phone": "(509) 572-2310",
    "lat": 46.2604,
    "lng": -119.288,
    "website": "https://nirvanacannabis.company/richland-menu/",
    "hours": "M-Sa 8a-11:45p, Su 8a-11p",
    "revenue": 279888,
    "rep": "Jeremy Schmidt"
  },
  {
    "name": "Green2Go - Pasco",
    "address": "5804 Rd 90, Ste G",
    "city": "Pasco",
    "state": "WA",
    "zip": "99301",
    "phone": "(509) 420-0000",
    "lat": 46.2693,
    "lng": -119.2118,
    "website": "https://g2grec.com/",
    "hours": "Daily 8a-11p",
    "revenue": 274113,
    "rep": "Nancy Drinkard WA"
  },
  {
    "name": "Kush 21 - Sodo",
    "address": "2215 4th Ave S",
    "city": "Seattle",
    "state": "WA",
    "zip": "98134",
    "phone": "(206) 624-4045",
    "lat": 47.5851,
    "lng": -122.332,
    "website": "https://kush21.com/",
    "hours": "Daily 8a-12a",
    "revenue": 251444,
    "rep": "Scotland Schieber"
  },
  {
    "name": "Seattle Tonics",
    "address": "12059 Aurora Ave N",
    "city": "Seattle",
    "state": "WA",
    "zip": "98133",
    "phone": "(206) 363-6000",
    "lat": 47.715,
    "lng": -122.3441,
    "website": "https://www.seattletonics.com/",
    "hours": "M-F 8a-10p, Sa 10a-10p, Su 10a-8p",
    "revenue": 246937,
    "rep": "Ashlea Underwood"
  },
  {
    "name": "Uncle Ike's - Lake City",
    "address": "11306 Lake City Way NE",
    "city": "Seattle",
    "state": "WA",
    "zip": "98125",
    "phone": "(206) 436-0044",
    "lat": 47.7117,
    "lng": -122.2922,
    "website": "https://ikes.com/dispensary-location/lake-city",
    "hours": "Daily 8a-11:45p",
    "revenue": 237877,
    "rep": "Ashlea Underwood"
  },
  {
    "name": "Commencement Bay Cannabis - Black",
    "address": "218 Norpoint Way NE",
    "city": "Tacoma",
    "state": "WA",
    "zip": "98422",
    "phone": "(253) 517-7265",
    "lat": 47.301,
    "lng": -122.406,
    "website": "https://commencementbaycannabis.com/cbc-black-menu/",
    "hours": "Daily 8a-11:30p",
    "revenue": 229833,
    "rep": "Scotland Schieber"
  },
  {
    "name": "Kush21 - Buckley",
    "address": "29393 WA-410",
    "city": "Buckley",
    "state": "WA",
    "zip": "98321",
    "phone": "(360) 999-3650",
    "lat": 47.1655,
    "lng": -122.0289,
    "website": "https://kush21.com/",
    "hours": "Daily 8a-12a",
    "revenue": 214587,
    "rep": "Scotland Schieber"
  },
  {
    "name": "Remedy Tulalip",
    "address": "9226 34th Ave NE",
    "city": "Marysville",
    "state": "WA",
    "zip": "98271",
    "phone": "(360) 716-3200",
    "lat": 48.0837,
    "lng": -122.181,
    "website": "https://remedytulalip.com/",
    "hours": "Daily 7a-10p",
    "revenue": 214366,
    "rep": "Jeremy Schmidt"
  },
  {
    "name": "Happy Time Dispensary - Yakima",
    "address": "1315 N 1st St, Ste A",
    "city": "Yakima",
    "state": "WA",
    "zip": "98901",
    "phone": "(509) 571-1106",
    "lat": 46.6198,
    "lng": -120.5115,
    "website": "https://happytimeweed.com/yakima",
    "hours": "M-F 8a-11:30p, Sa-Su 9a-11:30p",
    "revenue": 212989,
    "rep": "Jeremy Schmidt"
  },
  {
    "name": "Kush 21 - Burien",
    "address": "17730 Ambaum Blvd S, Ste D",
    "city": "Seattle",
    "state": "WA",
    "zip": "98148",
    "phone": "(206) 402-6955",
    "lat": 47.4517,
    "lng": -122.3469,
    "website": "https://kush21.com/",
    "hours": "Daily 8a-12a",
    "revenue": 210875,
    "rep": "Scotland Schieber"
  },
  {
    "name": "Canna4Life",
    "address": "721 6th St",
    "city": "Clarkston",
    "state": "WA",
    "zip": "99403",
    "phone": "(509) 295-8218",
    "lat": 46.4187,
    "lng": -117.0463,
    "website": "https://canna4life.com/",
    "hours": "M-Sa 8a-11p, Su 9a-10p",
    "revenue": 208568,
    "rep": "Scotland Schieber"
  },
  {
    "name": "Apex Cannabis - Moses Lake",
    "address": "955 W Broadway Ave",
    "city": "Moses Lake",
    "state": "WA",
    "zip": "98837",
    "phone": "(509) 765-4216",
    "lat": 47.1293,
    "lng": -119.2882,
    "website": "https://www.apexcannabis.com/locations/moseslake/",
    "hours": "Daily 8a-11p",
    "revenue": 205558,
    "rep": "Scotland Schieber"
  },
  {
    "name": "The Herbery - Fourth Plain",
    "address": "12001 NE Fourth Plain Blvd",
    "city": "Vancouver",
    "state": "WA",
    "zip": "98682",
    "phone": "(360) 776-3160",
    "lat": 45.6628,
    "lng": -122.5436,
    "website": "https://www.theherberynw.com/the-herbery-fourth-plain-cannabis",
    "hours": "Daily 8a-11p",
    "revenue": 204739,
    "rep": "Jeremy Schmidt"
  },
  {
    "name": "Herban Market",
    "address": "3965 Bethel Rd SE, Ste 3",
    "city": "Port Orchard",
    "state": "WA",
    "zip": "98366",
    "phone": "(360) 443-2859",
    "lat": 47.5106,
    "lng": -122.6296,
    "website": "https://www.herbanmarket.com/",
    "hours": "Daily 8a-11p",
    "revenue": 199555,
    "rep": "Scotland Schieber"
  },
  {
    "name": "High 5 Cannabis - Vancouver",
    "address": "6511 NE 137th Ave, Ste C",
    "city": "Vancouver",
    "state": "WA",
    "zip": "98682",
    "phone": "(360) 947-5404",
    "lat": 45.647,
    "lng": -122.5224,
    "website": "https://www.high5cannabis.com/",
    "hours": "Daily 8a-11p",
    "revenue": 197904,
    "rep": "Scotland Schieber"
  },
  {
    "name": "A Greener Today - Bothell",
    "address": "19315 Bothell Everett Hwy, Ste 1",
    "city": "Bothell",
    "state": "WA",
    "zip": "98012",
    "phone": "(425) 419-4161",
    "lat": 47.8327,
    "lng": -122.2191,
    "website": "https://agreenertoday.com/stores/bothell/",
    "hours": "Daily 8a-11p",
    "revenue": 195932,
    "rep": "Scotland Schieber"
  },
  {
    "name": "Fire & Frost Cannabis",
    "address": "6818 NE 4th Plain Blvd, Ste B",
    "city": "Vancouver",
    "state": "WA",
    "zip": "98661",
    "phone": "(360) 213-1011",
    "lat": 45.6588,
    "lng": -122.602,
    "website": "https://fireandfrostcannabis.com/",
    "hours": "M-Sa 8a-11p",
    "revenue": 185206,
    "rep": "Scotland Schieber"
  },
  {
    "name": "Uncle Ike's - Olive Way",
    "address": "1411 E Olive Way",
    "city": "Seattle",
    "state": "WA",
    "zip": "98122",
    "phone": "(206) 330-0498",
    "lat": 47.619,
    "lng": -122.3225,
    "website": "https://ikes.com/dispensary-location/olive-way",
    "hours": "Daily 8a-11:45p",
    "revenue": 182288,
    "rep": "Ashlea Underwood"
  },
  {
    "name": "Uncle Ikes 23rd & Union",
    "address": "2310 EAST UNION ST",
    "city": "Seattle",
    "state": "WA",
    "zip": "98122-2966",
    "phone": "(206) 420-3784",
    "lat": 47.6133,
    "lng": -122.3022,
    "website": null,
    "hours": null,
    "revenue": 182206,
    "rep": "Ashlea Underwood"
  },
  {
    "name": "Local Roots - Yakima",
    "address": "2 N 11th St",
    "city": "Yakima",
    "state": "WA",
    "zip": "98901",
    "phone": "(509) 426-2436",
    "lat": 46.6011,
    "lng": -120.4979,
    "website": "https://mylocalroots.com/local-roots-yakima/",
    "hours": "Daily 8a-11:45p",
    "revenue": 174756,
    "rep": "Scotland Schieber"
  },
  {
    "name": "Lidz Cannabis - 38th Tacoma",
    "address": "3213 S 38th St",
    "city": "Tacoma",
    "state": "WA",
    "zip": "98409",
    "phone": "(253) 292-0197",
    "lat": 47.2196,
    "lng": -122.4612,
    "website": "https://lidzcannabis.com/stores/lidz-cannabis-dispensary-38th-street-tacoma-wa/",
    "hours": "Daily 8a-12a",
    "revenue": 171014,
    "rep": "Scotland Schieber"
  },
  {
    "name": "The Herbery - 78th",
    "address": "1401 NE 78th St",
    "city": "Vancouver",
    "state": "WA",
    "zip": "98665",
    "phone": "(360) 841-7500",
    "lat": 45.6818,
    "lng": -122.6586,
    "website": "https://www.theherberynw.com/",
    "hours": "Daily 8a-11p",
    "revenue": 168883,
    "rep": "Jeremy Schmidt"
  },
  {
    "name": "The Happy Crop Shoppe - East Wenatchee",
    "address": "50 Rock Island Rd",
    "city": "East Wenatchee",
    "state": "WA",
    "zip": "98802",
    "phone": "(509) 888-1597",
    "lat": 47.4072,
    "lng": -120.2843,
    "website": "https://thehappycropshoppe.com/east-wenatchee/",
    "hours": "Daily 8a-10p",
    "revenue": 168782,
    "rep": "Jeremy Schmidt"
  },
  {
    "name": "PRC - Arlington",
    "address": "5200 172nd St NE, Ste F101",
    "city": "Arlington",
    "state": "WA",
    "zip": "98223",
    "phone": "(360) 550-9333",
    "lat": 48.15,
    "lng": -122.1733,
    "website": "https://wheresweed.com/washington/arlington/marijuana-dispensaries/prc-172nd-street",
    "hours": "Daily 8a-11p",
    "revenue": 164886,
    "rep": "Ashlea Underwood"
  },
  {
    "name": "Joint Rivers",
    "address": "2121 Auburn Way S",
    "city": "Auburn",
    "state": "WA",
    "zip": "98002",
    "phone": "(253) 263-8899",
    "lat": 47.2854,
    "lng": -122.205,
    "website": "https://jointrivers.com/",
    "hours": "Daily 7a-11p",
    "revenue": 164705,
    "rep": "Scotland Schieber"
  },
  {
    "name": "Commencement Bay Cannabis - Yellow (Fife)",
    "address": "5402 Pacific Hwy E",
    "city": "Fife",
    "state": "WA",
    "zip": "98424",
    "phone": "(253) 517-7265",
    "lat": 47.2398,
    "lng": -122.3724,
    "website": "https://commencementbaycannabis.com/cbc-yellow-menu/",
    "hours": "Daily 8a-11:30p",
    "revenue": 164375,
    "rep": "Scotland Schieber"
  },
  {
    "name": "Zips Cannabis on 176th",
    "address": "10406 Sunrise Blvd E",
    "city": "Puyallup",
    "state": "WA",
    "zip": "98374",
    "phone": "(253) 256-2244",
    "lat": 47.1346,
    "lng": -122.2855,
    "website": "https://zipscannabis.com/puyallup-176th",
    "hours": "Daily 8a-12a",
    "revenue": 163525,
    "rep": "Scotland Schieber"
  },
  {
    "name": "Walla Walla Weedery",
    "address": "1603 E Isaacs Ave",
    "city": "Walla Walla",
    "state": "WA",
    "zip": "99362",
    "phone": "(509) 876-4279",
    "lat": 46.0732,
    "lng": -118.3122,
    "website": "https://www.wallawallaweedery.com/",
    "hours": "Daily 8a-11p",
    "revenue": 158810,
    "rep": "Jeremy Schmidt"
  },
  {
    "name": "Locals Canna House",
    "address": "9616 E Sprague Ave",
    "city": "Spokane Valley",
    "state": "WA",
    "zip": "99206",
    "phone": "(509) 413-2796",
    "lat": 47.6537,
    "lng": -117.258,
    "website": "https://localscannahouse.com/",
    "hours": "Daily 8a-11p",
    "revenue": 158607,
    "rep": "Scotland Schieber"
  },
  {
    "name": "The Green Nugget - Spokane",
    "address": "322 E Francis Ave, Ste A",
    "city": "Spokane",
    "state": "WA",
    "zip": "99208",
    "phone": "(509) 309-2130",
    "lat": 47.7202,
    "lng": -117.4118,
    "website": "https://thegreennugget.com/spokane/",
    "hours": "Daily 8:30a-10p",
    "revenue": 155297,
    "rep": "Jeremy Schmidt"
  },
  {
    "name": "Northwest Cannabis Connection",
    "address": "11522 Canyon Rd E",
    "city": "Puyallup",
    "state": "WA",
    "zip": "98373",
    "phone": "(253) 292-0444",
    "lat": 47.1283,
    "lng": -122.3744,
    "website": "https://www.nwcannabisconnections.com/",
    "hours": "Daily 8a-11p",
    "revenue": 155159,
    "rep": "Ashlea Underwood"
  },
  {
    "name": "Shawn Kemp's Cannabis - Belltown",
    "address": "3035 1st Ave",
    "city": "Seattle",
    "state": "WA",
    "zip": "98121",
    "phone": "(206) 345-0009",
    "lat": 47.6151,
    "lng": -122.3506,
    "website": "https://www.kempscannabis.com/",
    "hours": "Daily 8a-11:45p",
    "revenue": 151656,
    "rep": "Scotland Schieber"
  },
  {
    "name": "A Greener Today - Gold Bar",
    "address": "17002 415th Ave SE, Ste A2",
    "city": "Gold Bar",
    "state": "WA",
    "zip": "98251",
    "phone": "(360) 217-8905",
    "lat": 47.8589,
    "lng": -121.6985,
    "website": "https://agreenertoday.com/stores/gold-bar/",
    "hours": "Daily 8a-11p",
    "revenue": 151320,
    "rep": "Scotland Schieber"
  },
  {
    "name": "Buddy's",
    "address": "420 Sunset Blvd N",
    "city": "Renton",
    "state": "WA",
    "zip": "98057",
    "phone": "(425) 226-9333",
    "lat": 47.4942,
    "lng": -122.211,
    "website": "https://shopbuddys.com/",
    "hours": "Daily 8a-11p",
    "revenue": 149952,
    "rep": "Scotland Schieber"
  },
  {
    "name": "The Evergreen Market - Auburn",
    "address": "402 16th St NE, Ste A-100",
    "city": "Auburn",
    "state": "WA",
    "zip": "98002",
    "phone": "(253) 216-2452",
    "lat": 47.3196,
    "lng": -122.2241,
    "website": "https://evergreenmarket.com/auburn-recreational/",
    "hours": "Daily 8a-11:45p",
    "revenue": 149318,
    "rep": "Scotland Schieber"
  },
  {
    "name": "Bud Barn - Yelm",
    "address": "10619 Vancil Rd SE, Ste B",
    "city": "Yelm",
    "state": "WA",
    "zip": "98597",
    "phone": "(360) 960-1220",
    "lat": 46.9447,
    "lng": -122.6038,
    "website": "https://shopbudbarn.com/yelm/",
    "hours": "Daily 8a-11:50p",
    "revenue": 146224,
    "rep": "Scotland Schieber"
  },
  {
    "name": "Euphorium - Covington",
    "address": "27623 Covington Way SE",
    "city": "Covington",
    "state": "WA",
    "zip": "98042",
    "phone": "(253) 455-4582",
    "lat": 47.3578,
    "lng": -122.1239,
    "website": "https://euphorium502.com/euphorium-covington/",
    "hours": "M-Sa 8a-11:45p, Su 9a-10p",
    "revenue": 145503,
    "rep": "Ashlea Underwood"
  },
  {
    "name": "Dank's Warehouse - Renton",
    "address": "14300 SE Petrovitsky Rd",
    "city": "Renton",
    "state": "WA",
    "zip": "98058",
    "phone": "(425) 572-6439",
    "lat": 47.4467,
    "lng": -122.1605,
    "website": "https://dankswarehouse.com/",
    "hours": "Daily 8a-11:45p",
    "revenue": 145491,
    "rep": "Danny Thoren"
  },
  {
    "name": "The Gallery - Spanaway",
    "address": "21802 Mountain Hwy E",
    "city": "Spanaway",
    "state": "WA",
    "zip": "98387",
    "phone": "(253) 375-7840",
    "lat": 47.0641,
    "lng": -122.3107,
    "website": "https://thegalleryco.com/the-shops/spanaway-mt-hwy/",
    "hours": "Daily 8a-11:30p",
    "revenue": 145106,
    "rep": "Caitlin Stoner"
  },
  {
    "name": "Dank's Warehouse - Edmonds",
    "address": "7207 212th St SW",
    "city": "Edmonds",
    "state": "WA",
    "zip": "98026",
    "phone": "(425) 670-0690",
    "lat": 47.8095,
    "lng": -122.3413,
    "website": "https://dankswarehouse.com/",
    "hours": "Daily 8a-11p",
    "revenue": 143126,
    "rep": "Danny Thoren"
  },
  {
    "name": "Zips Cannabis on 6th Ave",
    "address": "5924 6th Ave",
    "city": "Tacoma",
    "state": "WA",
    "zip": "98406",
    "phone": "(253) 572-5544",
    "lat": 47.2607,
    "lng": -122.4926,
    "website": "https://zipscannabis.com/tacoma-6th",
    "hours": "M-Sa 8a-12a",
    "revenue": 142681,
    "rep": "Scotland Schieber"
  },
  {
    "name": "Clear Choice Cannabis - 72nd Tacoma",
    "address": "317 S 72nd St",
    "city": "Tacoma",
    "state": "WA",
    "zip": "98408",
    "phone": "(253) 352-9881",
    "lat": 47.1832,
    "lng": -122.4423,
    "website": "https://findclearchoice.com/stores/clear-choice-tacoma-72nd/",
    "hours": "Daily 8a-11:55p",
    "revenue": 142641,
    "rep": "Caitlin Stoner"
  },
  {
    "name": "The Slow Burn - 40th Ave",
    "address": "1300 N 40th Ave, Ste 111",
    "city": "Yakima",
    "state": "WA",
    "zip": "98908",
    "phone": "(509) 853-8420",
    "lat": 46.6101,
    "lng": -120.5697,
    "website": "https://www.theslowburn.com/",
    "hours": "Daily 8a-11p",
    "revenue": 137952,
    "rep": "Jeremy Schmidt"
  },
  {
    "name": "The Marijuana Mercantile",
    "address": "7212 SR-92, Ste 5",
    "city": "Granite Falls",
    "state": "WA",
    "zip": "98252",
    "phone": "(360) 572-0013",
    "lat": 48.084,
    "lng": -121.9758,
    "website": "https://themarijuanamercantile.com/",
    "hours": "Daily 8a-10p",
    "revenue": 135912,
    "rep": "Scotland Schieber"
  },
  {
    "name": "Kush21 Everett - Evergreen Way",
    "address": "8911 Evergreen Way",
    "city": "Everett",
    "state": "WA",
    "zip": "98208",
    "phone": "(425) 374-3737",
    "lat": 47.917,
    "lng": -122.2362,
    "website": "https://kush21.com/kush21-everett/",
    "hours": "Daily 8a-12a",
    "revenue": 135063,
    "rep": "Scotland Schieber"
  },
  {
    "name": "The Stash Box",
    "address": "3108 A St SE, Ste F",
    "city": "Auburn",
    "state": "WA",
    "zip": "98002",
    "phone": "(253) 397-4895",
    "lat": 47.2856,
    "lng": -122.2236,
    "website": "https://www.thestashboxllc.com/",
    "hours": "M-Th 8a-10p, F-Sa 8a-11p, Su 8a-9p",
    "revenue": 131755,
    "rep": "Ashlea Underwood"
  },
  {
    "name": "Cannabis & Glass - Liberty Lake",
    "address": "25101 E Appleway Ave",
    "city": "Liberty Lake",
    "state": "WA",
    "zip": "99019",
    "phone": "(509) 866-5129",
    "lat": 47.6643,
    "lng": -117.1167,
    "website": "https://cannabisandglass.com/",
    "hours": "Daily 8a-11p",
    "revenue": 128654,
    "rep": "Scotland Schieber"
  },
  {
    "name": "Zips Hwy 512 Tacoma",
    "address": "10422 PACIFIC AVE S STE B",
    "city": "Tacoma",
    "state": "WA",
    "zip": "98444-6052",
    "phone": "(253) 314-5113",
    "lat": 47.1617,
    "lng": -122.4347,
    "website": null,
    "hours": null,
    "revenue": 126588,
    "rep": "Scotland Schieber"
  },
  {
    "name": "Mary Mart Inc.",
    "address": "3002 6TH AVE STE 100",
    "city": "Tacoma",
    "state": "WA",
    "zip": "98406-6203",
    "phone": "(253) 961-4231",
    "lat": 47.255,
    "lng": -122.4752,
    "website": null,
    "hours": null,
    "revenue": 124460,
    "rep": "Ashlea Underwood"
  },
  {
    "name": "The Bake Shop Prosser",
    "address": "19705 N GRIFFIN RD",
    "city": "Prosser",
    "state": "WA",
    "zip": "99350",
    "phone": "(509) 778-2512",
    "lat": 46.2481,
    "lng": -119.8514,
    "website": null,
    "hours": null,
    "revenue": 118801,
    "rep": "Jeremy Schmidt"
  },
  {
    "name": "Higher Leaf Kirkland",
    "address": "12525 WILLOWS RD NE STE 10",
    "city": "Kirkland",
    "state": "WA",
    "zip": "98034-8735",
    "phone": "(425) 820-5967",
    "lat": 47.7129,
    "lng": -122.1545,
    "website": null,
    "hours": null,
    "revenue": 111405,
    "rep": "Scotland Schieber"
  },
  {
    "name": "The Fire House",
    "address": "1714 CANYON RD",
    "city": "Ellensburg",
    "state": "WA",
    "zip": "98926-9739",
    "phone": "(360) 791-0112",
    "lat": 46.9756,
    "lng": -120.5407,
    "website": null,
    "hours": null,
    "revenue": 110881,
    "rep": "Jeremy Schmidt"
  },
  {
    "name": "Floyd's Cannabis Mount Vernon",
    "address": "4218 RUCKER AVE",
    "city": "Mount Vernon",
    "state": "WA",
    "zip": "98203-2214",
    "phone": "(206) 547-1914",
    "lat": 47.9613,
    "lng": -122.2112,
    "website": null,
    "hours": null,
    "revenue": 110848,
    "rep": "Danny Thoren"
  },
  {
    "name": "28 Grahams Cannabis",
    "address": "10315 200TH ST E",
    "city": "Graham",
    "state": "WA",
    "zip": "98338",
    "phone": "(253) 740-5648",
    "lat": 47.0752,
    "lng": -122.2922,
    "website": null,
    "hours": null,
    "revenue": 110349,
    "rep": "Ashlea Underwood"
  },
  {
    "name": "420 Carpenter",
    "address": "422 CARPENTER RD STE 105",
    "city": "Lacey",
    "state": "WA",
    "zip": "98503-7906",
    "phone": "(360) 402-6368",
    "lat": 47.0485,
    "lng": -122.7955,
    "website": null,
    "hours": null,
    "revenue": 109570,
    "rep": "Jeremy Schmidt"
  },
  {
    "name": "Freedom Market Ilwaco",
    "address": "133 HOWERTON AVE SE STE B",
    "city": "Ilwaco",
    "state": "WA",
    "zip": "98624-9088",
    "phone": "(360) 703-6090",
    "lat": 46.3056,
    "lng": -124.041,
    "website": null,
    "hours": null,
    "revenue": 104109,
    "rep": "Scotland Schieber"
  },
  {
    "name": "Hangar 420 Snohomish",
    "address": "9929 AIRPORT WAY UNIT 1",
    "city": "Snohomish",
    "state": "WA",
    "zip": "98296-8229",
    "phone": "(206) 498-7171",
    "lat": 47.9062,
    "lng": -122.0979,
    "website": null,
    "hours": null,
    "revenue": 102668,
    "rep": "Scotland Schieber"
  },
  {
    "name": "Apex Cannabis Otis Orchards",
    "address": "955 W BROADWAY AVE",
    "city": "Moses Lake",
    "state": "WA",
    "zip": "98837",
    "phone": "(509) 499-0646",
    "lat": 47.1242,
    "lng": -119.2905,
    "website": null,
    "hours": null,
    "revenue": 101457,
    "rep": "Scotland Schieber"
  },
  {
    "name": "Sticky's",
    "address": "9411 NE HIGHWAY 99 STE 4",
    "city": "Vancouver",
    "state": "WA",
    "zip": "98665-8969",
    "phone": "(509) 952-1602",
    "lat": 45.6908,
    "lng": -122.6571,
    "website": null,
    "hours": null,
    "revenue": 101030,
    "rep": "Caitlin Stoner"
  },
  {
    "name": "Uncle Ikes Capitol Hill",
    "address": "1411 E OLIVE WAY",
    "city": "Capitol Hill",
    "state": "WA",
    "zip": "98122-2127",
    "phone": "(206) 330-0498",
    "lat": 47.6173,
    "lng": -122.3264,
    "website": null,
    "hours": null,
    "revenue": 100476,
    "rep": "Ashlea Underwood"
  },
  {
    "name": "Zips Downtown",
    "address": "2215 4TH AVE S",
    "city": "Seattle",
    "state": "WA",
    "zip": "98134-1516",
    "phone": "(509) 990-3124",
    "lat": 47.5835,
    "lng": -122.3297,
    "website": null,
    "hours": null,
    "revenue": 99598,
    "rep": "Scotland Schieber"
  },
  {
    "name": "420 Capitol",
    "address": "5980 CAPITOL BLVD SE",
    "city": "Tumwater",
    "state": "WA",
    "zip": "98501-5274",
    "phone": "(360) 402-6368",
    "lat": 46.9956,
    "lng": -122.907,
    "website": null,
    "hours": null,
    "revenue": 99019,
    "rep": "Jeremy Schmidt"
  },
  {
    "name": "The Green Room",
    "address": "1640 NE GOLDIE ST STE B",
    "city": "Oak Harbor",
    "state": "WA",
    "zip": "98277-4835",
    "phone": "(206) 504-8629",
    "lat": 48.3115,
    "lng": -122.644,
    "website": null,
    "hours": null,
    "revenue": 98265,
    "rep": "Ashlea Underwood"
  },
  {
    "name": "Craft Cannabis Mill Plain",
    "address": "6515 E MILL PLAIN BLVD",
    "city": "Vancouver",
    "state": "WA",
    "zip": "98661-7455",
    "phone": "(503) 341-7097",
    "lat": 45.627,
    "lng": -122.6042,
    "website": null,
    "hours": null,
    "revenue": 97707,
    "rep": "Ashlea Underwood"
  },
  {
    "name": "Cannabis Country Store",
    "address": "1910 W MAIN ST SUITE 101",
    "city": "Battle Ground",
    "state": "WA",
    "zip": "98604",
    "phone": "(360) 798-7194",
    "lat": 45.7809,
    "lng": -122.5576,
    "website": null,
    "hours": null,
    "revenue": 97367,
    "rep": "Ashlea Underwood"
  },
  {
    "name": "Lidz North",
    "address": "9301 N DIVISION ST STE B-C",
    "city": "Spokane",
    "state": "WA",
    "zip": "99218-1254",
    "phone": "(503) 805-7828",
    "lat": 47.7419,
    "lng": -117.4122,
    "website": null,
    "hours": null,
    "revenue": 96541,
    "rep": "Scotland Schieber"
  },
  {
    "name": "Herbal E Scents",
    "address": "120 NE CANNING DR",
    "city": "Colville",
    "state": "WA",
    "zip": "99114-2004",
    "phone": "(509) 684-4420",
    "lat": 48.555,
    "lng": -117.9196,
    "website": null,
    "hours": null,
    "revenue": 95238,
    "rep": "Jeremy Schmidt"
  },
  {
    "name": "Marley 420",
    "address": "27022 168TH PL SE",
    "city": "Covington",
    "state": "WA",
    "zip": "98042-4902",
    "phone": "(206) 714-7733",
    "lat": 47.3596,
    "lng": -122.1168,
    "website": null,
    "hours": null,
    "revenue": 94312,
    "rep": "Ashlea Underwood"
  },
  {
    "name": "Higher Leaf Eastgate-Bellevue",
    "address": "15937 REDMOND WAY STE B",
    "city": "Bellevue",
    "state": "WA",
    "zip": "98052-3836",
    "phone": "(206) 795-2434",
    "lat": 47.6744,
    "lng": -122.1282,
    "website": null,
    "hours": null,
    "revenue": 93513,
    "rep": "Scotland Schieber"
  },
  {
    "name": "Floyd's Cannabis Sedro Woolley",
    "address": "410 W STATE ST",
    "city": "Sedro Woolley",
    "state": "WA",
    "zip": "98284-1557",
    "phone": "(360) 588-4473",
    "lat": 48.5035,
    "lng": -122.2465,
    "website": null,
    "hours": null,
    "revenue": 92785,
    "rep": "Danny Thoren"
  },
  {
    "name": "Craft Cannabis Tacoma",
    "address": "2128 S 37TH ST",
    "city": "Tacoma",
    "state": "WA",
    "zip": "98409-7445",
    "phone": "(253) 655-0420",
    "lat": 47.2231,
    "lng": -122.466,
    "website": null,
    "hours": null,
    "revenue": 92765,
    "rep": "Ashlea Underwood"
  },
  {
    "name": "Apex Cannabis - Market Street",
    "address": "955 W BROADWAY AVE",
    "city": "Moses Lake",
    "state": "WA",
    "zip": "98837",
    "phone": "(509) 499-0646",
    "lat": 47.1242,
    "lng": -119.2905,
    "website": null,
    "hours": null,
    "revenue": 91705,
    "rep": "Scotland Schieber"
  },
  {
    "name": "Pend Oreille Cannabis Co",
    "address": "124 RIVERSIDE AVE SUITE A",
    "city": "Ione",
    "state": "WA",
    "zip": "99139",
    "phone": "(509) 939-0086",
    "lat": 48.736,
    "lng": -117.412,
    "website": null,
    "hours": null,
    "revenue": 87386,
    "rep": "Jeremy Schmidt"
  },
  {
    "name": "Craft Cannabis Andresen",
    "address": "6515 E MILL PLAIN BLVD",
    "city": "Vancouver",
    "state": "WA",
    "zip": "98661-7455",
    "phone": "(503) 341-7097",
    "lat": 45.627,
    "lng": -122.6042,
    "website": null,
    "hours": null,
    "revenue": 85638,
    "rep": "Ashlea Underwood"
  },
  {
    "name": "The Joint Burien",
    "address": "14325 1ST AVE S STE 101",
    "city": "Burien",
    "state": "WA",
    "zip": "98168-3418",
    "phone": "(206) 225-5555",
    "lat": 47.4743,
    "lng": -122.3342,
    "website": null,
    "hours": null,
    "revenue": 85240,
    "rep": "Ashlea Underwood"
  },
  {
    "name": "Cult Cannabis Co",
    "address": "6061 PORTAL WAY",
    "city": "Ferndale",
    "state": "WA",
    "zip": "98248-9360",
    "phone": "(360) 676-2539",
    "lat": 48.8615,
    "lng": -122.5862,
    "website": null,
    "hours": null,
    "revenue": 83257,
    "rep": "Danny Thoren"
  },
  {
    "name": "The Gallery Canyon",
    "address": "11821 CANYON RD E",
    "city": "Puyallup",
    "state": "WA",
    "zip": "98373-4453",
    "phone": "(253) 604-4360",
    "lat": 47.1482,
    "lng": -122.3566,
    "website": null,
    "hours": null,
    "revenue": 83070,
    "rep": "Caitlin Stoner"
  },
  {
    "name": "Pot Zone - Port Orchard",
    "address": "1703 SE SEDGWICK RD",
    "city": "Port Orchard",
    "state": "WA",
    "zip": "98366-9599",
    "phone": "(253) 312-7280",
    "lat": 47.5057,
    "lng": -122.6306,
    "website": null,
    "hours": null,
    "revenue": 82963,
    "rep": "Ashlea Underwood"
  },
  {
    "name": "Cannabis & Glass Trent (Valley)",
    "address": "605 E FRANCIS",
    "city": "Spokane",
    "state": "WA",
    "zip": "99208",
    "phone": "(509) 999-1112",
    "lat": 47.7154,
    "lng": -117.4,
    "website": null,
    "hours": null,
    "revenue": 82491,
    "rep": "Scotland Schieber"
  },
  {
    "name": "210 Cannabis",
    "address": "9034 BEAVER VALLEY ROAD",
    "city": "Chimacum",
    "state": "WA",
    "zip": "98325-8781",
    "phone": "(206) 681-8394",
    "lat": 48.0115,
    "lng": -122.7674,
    "website": null,
    "hours": null,
    "revenue": 80525,
    "rep": "Ashlea Underwood"
  },
  {
    "name": "Issaquah Cannabis Co",
    "address": "1428 OLYMPIC HWY S UNIT 1",
    "city": "Issaquah",
    "state": "WA",
    "zip": "98584-3266",
    "phone": "(404) 406-3054",
    "lat": 47.2025,
    "lng": -123.0913,
    "website": null,
    "hours": null,
    "revenue": 80214,
    "rep": "Ashlea Underwood"
  },
  {
    "name": "Floyd's Cannabis Burlington",
    "address": "4218 RUCKER AVE",
    "city": "Burlington",
    "state": "WA",
    "zip": "98203-2214",
    "phone": "(206) 547-1914",
    "lat": 47.9613,
    "lng": -122.2112,
    "website": null,
    "hours": null,
    "revenue": 79267,
    "rep": "Danny Thoren"
  },
  {
    "name": "Cannabis & Glass Francis (North)",
    "address": "605 E FRANCIS",
    "city": "Spokane",
    "state": "WA",
    "zip": "99208",
    "phone": "(509) 999-1112",
    "lat": 47.7154,
    "lng": -117.4,
    "website": null,
    "hours": null,
    "revenue": 78483,
    "rep": "Scotland Schieber"
  },
  {
    "name": "Vault Cannabis Lake Stevens",
    "address": "9626 32ND ST SE",
    "city": "Lake Stevens",
    "state": "WA",
    "zip": "98205",
    "phone": "(425) 248-8559",
    "lat": 47.9669,
    "lng": -122.1015,
    "website": null,
    "hours": null,
    "revenue": 78422,
    "rep": "Ashlea Underwood"
  },
  {
    "name": "Craft Cannabis Wenatchee",
    "address": "1510 N WENATCHEE AVE",
    "city": "Wenatchee",
    "state": "WA",
    "zip": "98801-1157",
    "phone": "(509) 679-9999",
    "lat": 47.4445,
    "lng": -120.3281,
    "website": null,
    "hours": null,
    "revenue": 77826,
    "rep": "Ashlea Underwood"
  },
  {
    "name": "Freedom Market Longview",
    "address": "971 14TH AVE STE 110",
    "city": "Longview",
    "state": "WA",
    "zip": "98632-4049",
    "phone": "(360) 261-7055",
    "lat": 46.1321,
    "lng": -122.9382,
    "website": null,
    "hours": null,
    "revenue": 77376,
    "rep": "Scotland Schieber"
  },
  {
    "name": "365 Recreational Shoreline",
    "address": "17517 15TH AVE NE #B",
    "city": "Shoreline",
    "state": "WA",
    "zip": "98155-3801",
    "phone": "(206) 557-7778",
    "lat": 47.7563,
    "lng": -122.3137,
    "website": null,
    "hours": null,
    "revenue": 77362,
    "rep": "Ashlea Underwood"
  },
  {
    "name": "Cascade Herb - Bellingham",
    "address": "1240 E MAPLE ST STE 103",
    "city": "Bellingham",
    "state": "WA",
    "zip": "98225-5749",
    "phone": "(360) 778-2357",
    "lat": 48.7396,
    "lng": -122.4703,
    "website": null,
    "hours": null,
    "revenue": 76718,
    "rep": "Caitlin Stoner"
  },
  {
    "name": "The Gallery Parkland",
    "address": "13005 PACIFIC AVE S",
    "city": "Tacoma",
    "state": "WA",
    "zip": "98444-4857",
    "phone": "(253) 604-4360",
    "lat": 47.139,
    "lng": -122.4341,
    "website": null,
    "hours": null,
    "revenue": 76344,
    "rep": "Caitlin Stoner"
  },
  {
    "name": "Cedar Greens Cannabis",
    "address": "9034 BEAVER VALLEY ROAD",
    "city": "Chimacum",
    "state": "WA",
    "zip": "98325-8781",
    "phone": "(206) 681-8394",
    "lat": 48.0115,
    "lng": -122.7674,
    "website": null,
    "hours": null,
    "revenue": 76231,
    "rep": "Scotland Schieber"
  },
  {
    "name": "420 Grand Central",
    "address": "19941 OLD HIGHWAY 99 SW",
    "city": "Rochester",
    "state": "WA",
    "zip": "98579-8689",
    "phone": "(360) 402-6368",
    "lat": 46.7985,
    "lng": -123.0127,
    "website": null,
    "hours": null,
    "revenue": 75851,
    "rep": "Jeremy Schmidt"
  },
  {
    "name": "Higher Leaf - Factoria",
    "address": "15937 REDMOND WAY STE B",
    "city": "Redmond",
    "state": "WA",
    "zip": "98052-3836",
    "phone": "(206) 795-2434",
    "lat": 47.6744,
    "lng": -122.1282,
    "website": null,
    "hours": null,
    "revenue": 75021,
    "rep": "Scotland Schieber"
  },
  {
    "name": "The Link Cannabis Co Port Angeles",
    "address": "2211 46TH AVE",
    "city": "Port Angeles",
    "state": "WA",
    "zip": "98632-5013",
    "phone": "(206) 200-0462",
    "lat": 46.1647,
    "lng": -122.9998,
    "website": null,
    "hours": null,
    "revenue": 74488,
    "rep": "Jeremy Schmidt"
  },
  {
    "name": "Fire Cannabis Co Yakima",
    "address": "1401 S 1ST ST STE 102",
    "city": "Yakima",
    "state": "WA",
    "zip": "98901-3541",
    "phone": "(509) 367-6043",
    "lat": 46.5849,
    "lng": -120.4957,
    "website": null,
    "hours": null,
    "revenue": 74257,
    "rep": "Jeremy Schmidt"
  },
  {
    "name": "Destination HWY 420",
    "address": "11493 CLEAR CREEK RD",
    "city": "Silverdale",
    "state": "WA",
    "zip": "98383-9657",
    "phone": "(360) 440-8671",
    "lat": 47.6671,
    "lng": -122.6935,
    "website": null,
    "hours": null,
    "revenue": 74102,
    "rep": "Danny Thoren"
  },
  {
    "name": "Apex Cannabis Division",
    "address": "955 W BROADWAY AVE",
    "city": "Moses Lake",
    "state": "WA",
    "zip": "98837",
    "phone": "(509) 499-0646",
    "lat": 47.1242,
    "lng": -119.2905,
    "website": null,
    "hours": null,
    "revenue": 72776,
    "rep": "Scotland Schieber"
  },
  {
    "name": "112th St Cannabis",
    "address": "9034 BEAVER VALLEY ROAD",
    "city": "Chimacum",
    "state": "WA",
    "zip": "98325-8781",
    "phone": "(206) 681-8394",
    "lat": 48.0115,
    "lng": -122.7674,
    "website": null,
    "hours": null,
    "revenue": 71454,
    "rep": "Ashlea Underwood"
  },
  {
    "name": "Cannazone HWY 99",
    "address": "3010 OLD HWY 99 SOUTH RD STE B",
    "city": "Mount Vernon",
    "state": "WA",
    "zip": "98273-9037",
    "phone": "(860) 209-2288",
    "lat": 48.3974,
    "lng": -122.3352,
    "website": null,
    "hours": null,
    "revenue": 69817,
    "rep": "Caitlin Stoner"
  },
  {
    "name": "Freedom Market - Kelso",
    "address": "971 14TH AVE STE 110",
    "city": "Longview",
    "state": "WA",
    "zip": "98632-4049",
    "phone": "(360) 261-7055",
    "lat": 46.1321,
    "lng": -122.9382,
    "website": null,
    "hours": null,
    "revenue": 69492,
    "rep": "Scotland Schieber"
  },
  {
    "name": "Cannazone Burlington",
    "address": "1956 1ST AVE S",
    "city": "Burlington",
    "state": "WA",
    "zip": "98134-1406",
    "phone": "(860) 209-2288",
    "lat": 47.5844,
    "lng": -122.334,
    "website": null,
    "hours": null,
    "revenue": 68972,
    "rep": "Caitlin Stoner"
  },
  {
    "name": "Bud Hut Camano Island",
    "address": "26207 MAPLE VALLEY BLACK",
    "city": "Maple Valley",
    "state": "WA",
    "zip": "98038-8378",
    "phone": "(206) 693-2900",
    "lat": 47.3668,
    "lng": -122.023,
    "website": null,
    "hours": null,
    "revenue": 68693,
    "rep": "Danny Thoren"
  },
  {
    "name": "Margie's Pot Shop",
    "address": "1628 DEXTER AVE N STE A",
    "city": "Seattle",
    "state": "WA",
    "zip": "98109-3019",
    "phone": "(614) 561-5684",
    "lat": 47.6339,
    "lng": -122.342,
    "website": null,
    "hours": null,
    "revenue": 68505,
    "rep": "Jeremy Schmidt"
  },
  {
    "name": "Cannazone Seattle",
    "address": "1956 1ST AVE S",
    "city": "Seattle",
    "state": "WA",
    "zip": "98134-1406",
    "phone": "(860) 209-2288",
    "lat": 47.5844,
    "lng": -122.334,
    "website": null,
    "hours": null,
    "revenue": 68309,
    "rep": "Caitlin Stoner"
  },
  {
    "name": "Lidz - Everett North",
    "address": "9301 N DIVISION ST STE B-C",
    "city": "Everett",
    "state": "WA",
    "zip": "99218-1254",
    "phone": "(503) 805-7828",
    "lat": 47.7419,
    "lng": -117.4122,
    "website": null,
    "hours": null,
    "revenue": 65080,
    "rep": "Scotland Schieber"
  },
  {
    "name": "The Station",
    "address": "1514 W UNIVERSITY WAY",
    "city": "Ellensburg",
    "state": "WA",
    "zip": "98926-2337",
    "phone": "(360) 791-0112",
    "lat": 47.0075,
    "lng": -120.5713,
    "website": null,
    "hours": null,
    "revenue": 64584,
    "rep": "Jeremy Schmidt"
  },
  {
    "name": "Herbal Nation",
    "address": "19302 BOTHELL EVERETT HWY",
    "city": "Bothell",
    "state": "WA",
    "zip": "98012-7113",
    "phone": "(425) 486-1111",
    "lat": 47.8227,
    "lng": -122.2079,
    "website": null,
    "hours": null,
    "revenue": 63359,
    "rep": "Danny Thoren"
  },
  {
    "name": "Cliff's Cannabis",
    "address": "1410 NW GILMAN BLVD STE A",
    "city": "Issaquah",
    "state": "WA",
    "zip": "98027-5343",
    "phone": "(206) 335-5857",
    "lat": 47.5465,
    "lng": -122.0576,
    "website": null,
    "hours": null,
    "revenue": 63170,
    "rep": "Ashlea Underwood"
  },
  {
    "name": "Birch Bay Budz",
    "address": "8125 BIRCH BAY SQUARE ST #222",
    "city": "Birch Bay",
    "state": "WA",
    "zip": "98230-9660",
    "phone": "(509) 209-4569",
    "lat": 48.9365,
    "lng": -122.6677,
    "website": null,
    "hours": null,
    "revenue": 63164,
    "rep": "Caitlin Stoner"
  },
  {
    "name": "Greenlight",
    "address": "10309 E TRENT AVE",
    "city": "Millwood",
    "state": "WA",
    "zip": "99206-4514",
    "phone": "(509) 475-2821",
    "lat": 47.6849,
    "lng": -117.2658,
    "website": null,
    "hours": null,
    "revenue": 62880,
    "rep": "Jeremy Schmidt"
  },
  {
    "name": "Cannabis Provisions Wenatchee",
    "address": "938 N 200TH ST STE C",
    "city": "Wenatchee",
    "state": "WA",
    "zip": "98133-3149",
    "phone": "(206) 629-5235",
    "lat": 47.7744,
    "lng": -122.3468,
    "website": null,
    "hours": null,
    "revenue": 61774,
    "rep": "Jeremy Schmidt"
  },
  {
    "name": "Cannarail Station",
    "address": "1448 BASIN ST NW SUITE A",
    "city": "Ephrata",
    "state": "WA",
    "zip": "98823-9695",
    "phone": "(509) 922-7242",
    "lat": 47.3383,
    "lng": -119.535,
    "website": null,
    "hours": null,
    "revenue": 60779,
    "rep": "Jeremy Schmidt"
  },
  {
    "name": "420 Holiday",
    "address": "2028 10TH AVE",
    "city": "Longview",
    "state": "WA",
    "zip": "98632-4007",
    "phone": "(360) 703-3103",
    "lat": 46.1456,
    "lng": -122.9291,
    "website": null,
    "hours": null,
    "revenue": 58052,
    "rep": "Jeremy Schmidt"
  },
  {
    "name": "Secret Herb Shop",
    "address": "2 COLUMBIA DR",
    "city": "Kettle Falls",
    "state": "WA",
    "zip": "99141-9461",
    "phone": "(509) 684-4420",
    "lat": 48.6265,
    "lng": -118.1238,
    "website": null,
    "hours": null,
    "revenue": 58041,
    "rep": "Jeremy Schmidt"
  },
  {
    "name": "Nature's Gifts",
    "address": "755 W WASHINGTON ST STE C",
    "city": "Sequim",
    "state": "WA",
    "zip": "98382-3272",
    "phone": "(360) 797-1993",
    "lat": 48.0791,
    "lng": -123.1204,
    "website": null,
    "hours": null,
    "revenue": 57206,
    "rep": "Caitlin Stoner"
  },
  {
    "name": "Kush Kirkland",
    "address": "11834 NE 90TH ST",
    "city": "Kirkland",
    "state": "WA",
    "zip": "98033-5814",
    "phone": "(425) 269-3242",
    "lat": 47.6826,
    "lng": -122.1818,
    "website": null,
    "hours": null,
    "revenue": 57140,
    "rep": "Danny Thoren"
  },
  {
    "name": "North West Cannabis",
    "address": "11522 CANYON RD E",
    "city": "Puyallup",
    "state": "WA",
    "zip": "98373-4360",
    "phone": "(253) 292-0444",
    "lat": 47.151,
    "lng": -122.3576,
    "website": null,
    "hours": null,
    "revenue": 56979,
    "rep": "Jeremy Schmidt"
  },
  {
    "name": "Canna West Seattle",
    "address": "5440 CALIFORNIA AVE SW",
    "city": "Seattle",
    "state": "WA",
    "zip": "98136-1513",
    "phone": "(206) 696-9240",
    "lat": 47.5527,
    "lng": -122.3866,
    "website": null,
    "hours": null,
    "revenue": 56732,
    "rep": "Ashlea Underwood"
  },
  {
    "name": "Better Buds Longview",
    "address": "946 WASHINGTON WAY STE 100",
    "city": "Longview",
    "state": "WA",
    "zip": "98632-4030",
    "phone": "(360) 703-3791",
    "lat": 46.1441,
    "lng": -122.9288,
    "website": null,
    "hours": null,
    "revenue": 56227,
    "rep": "Danny Thoren"
  },
  {
    "name": "Higher Leaf - BelRed",
    "address": "15937 REDMOND WAY STE B",
    "city": "Redmond",
    "state": "WA",
    "zip": "98052-3836",
    "phone": "(206) 795-2434",
    "lat": 47.6744,
    "lng": -122.1282,
    "website": null,
    "hours": null,
    "revenue": 56177,
    "rep": "Scotland Schieber"
  },
  {
    "name": "Sweet Jane - Gig Harbor",
    "address": "9705 STATE ROUTE 302 NW # B",
    "city": "Gig Harbor",
    "state": "WA",
    "zip": "98329-7102",
    "phone": "(253) 245-7831",
    "lat": 47.3892,
    "lng": -122.665,
    "website": null,
    "hours": null,
    "revenue": 56166,
    "rep": "Ashlea Underwood"
  },
  {
    "name": "Redmond Leaf Avondale",
    "address": "15937 REDMOND WAY STE B",
    "city": "Redmond",
    "state": "WA",
    "zip": "98052-3836",
    "phone": "(206) 795-2434",
    "lat": 47.6744,
    "lng": -122.1282,
    "website": null,
    "hours": null,
    "revenue": 56147,
    "rep": "Scotland Schieber"
  },
  {
    "name": "Euphorium Woodinville",
    "address": "21127 STATE ROUTE 9 SE",
    "city": "Woodinville",
    "state": "WA",
    "zip": "98072-9703",
    "phone": "(425) 408-0556",
    "lat": 47.8055,
    "lng": -122.1429,
    "website": null,
    "hours": null,
    "revenue": 55906,
    "rep": "Ashlea Underwood"
  },
  {
    "name": "Kushman's - Lynnwood",
    "address": "11400 MUKILTEO SPEEDWAY #102",
    "city": "Lynnwood",
    "state": "WA",
    "zip": "98275-5477",
    "phone": "(425) 245-7242",
    "lat": 47.8942,
    "lng": -122.2895,
    "website": null,
    "hours": null,
    "revenue": 55719,
    "rep": "Scotland Schieber"
  },
  {
    "name": "Greenside Rec Queen Anne",
    "address": "23407 PACIFIC HWY S",
    "city": "Queen Anne",
    "state": "WA",
    "zip": "98198-8738",
    "phone": "(206) 790-7036",
    "lat": 47.3917,
    "lng": -122.2956,
    "website": null,
    "hours": null,
    "revenue": 53128,
    "rep": "Scotland Schieber"
  },
  {
    "name": "Thunder Cannabis Rochester",
    "address": "9034 BEAVER VALLEY ROAD",
    "city": "Rochester",
    "state": "WA",
    "zip": "98325-8781",
    "phone": "(206) 681-8394",
    "lat": 48.0115,
    "lng": -122.7674,
    "website": null,
    "hours": null,
    "revenue": 52586,
    "rep": "Danny Thoren"
  },
  {
    "name": "Have A Heart Belltown",
    "address": "12833 MARTIN LUTHER KING JR",
    "city": "Seattle",
    "state": "WA",
    "zip": "98178-3513",
    "phone": "(206) 261-8206",
    "lat": 47.4877,
    "lng": -122.259,
    "website": null,
    "hours": null,
    "revenue": 52440,
    "rep": "Ashlea Underwood"
  },
  {
    "name": "420 West",
    "address": "410 RONLEE LN NW A1",
    "city": "Olympia",
    "state": "WA",
    "zip": "98502-9266",
    "phone": "(360) 402-6368",
    "lat": 47.0496,
    "lng": -122.9949,
    "website": null,
    "hours": null,
    "revenue": 52061,
    "rep": "Jeremy Schmidt"
  },
  {
    "name": "Super Chronic Club Olympia",
    "address": "6326 MARTIN WAY E STE 103",
    "city": "Olympia",
    "state": "WA",
    "zip": "98516-5561",
    "phone": "(206) 412-7285",
    "lat": 47.0508,
    "lng": -122.7971,
    "website": null,
    "hours": null,
    "revenue": 51017,
    "rep": "Jeremy Schmidt"
  },
  {
    "name": "20After4",
    "address": "1511 N GOERIG ST",
    "city": "Woodland",
    "state": "WA",
    "zip": "98674-8466",
    "phone": "(360) 562-9420",
    "lat": 45.9136,
    "lng": -122.742,
    "website": null,
    "hours": null,
    "revenue": 50179,
    "rep": "Scotland Schieber"
  },
  {
    "name": "The Green Door Buckley",
    "address": "27815 STATE ROUTE 410 E",
    "city": "Buckley",
    "state": "WA",
    "zip": "98321-9211",
    "phone": "(253) 224-8299",
    "lat": 47.1604,
    "lng": -122.0587,
    "website": null,
    "hours": null,
    "revenue": 50102,
    "rep": "Ashlea Underwood"
  },
  {
    "name": "Zia Recreational",
    "address": "905 SIMPSON AVENUE",
    "city": "Hoquiam",
    "state": "WA",
    "zip": "98550-3020",
    "phone": "(505) 712-8255",
    "lat": 46.9764,
    "lng": -123.8821,
    "website": null,
    "hours": null,
    "revenue": 50064,
    "rep": "Jeremy Schmidt"
  },
  {
    "name": "Herb's House",
    "address": "716 NW 65TH ST",
    "city": "Seattle",
    "state": "WA",
    "zip": "98117-5049",
    "phone": "(206) 557-7388",
    "lat": 47.6762,
    "lng": -122.3653,
    "website": null,
    "hours": null,
    "revenue": 49174,
    "rep": "Danny Thoren"
  },
  {
    "name": "Bud Hut Maple Valley",
    "address": "26207 MAPLE VALLEY BLACK",
    "city": "Maple Valley",
    "state": "WA",
    "zip": "98038-8378",
    "phone": "(206) 693-2900",
    "lat": 47.3668,
    "lng": -122.023,
    "website": null,
    "hours": null,
    "revenue": 48920,
    "rep": "Danny Thoren"
  },
  {
    "name": "Evolve Washington",
    "address": "4712 PACIFIC HWY",
    "city": "Bellingham",
    "state": "WA",
    "zip": "98226-9049",
    "phone": "(253) 569-4133",
    "lat": 48.8122,
    "lng": -122.5419,
    "website": null,
    "hours": null,
    "revenue": 48277,
    "rep": "Caitlin Stoner"
  },
  {
    "name": "PRC Edmonds",
    "address": "23221 EDMONDS WAY STE A",
    "city": "Edmonds",
    "state": "WA",
    "zip": "98026",
    "phone": "(425) 343-2272",
    "lat": 47.7881,
    "lng": -122.3538,
    "website": null,
    "hours": null,
    "revenue": 47756,
    "rep": "Ashlea Underwood"
  },
  {
    "name": "Floyd's Cannabis Pullman",
    "address": "5952 AIRPORT RD",
    "city": "Pullman",
    "state": "WA",
    "zip": "99163-8958",
    "phone": "(509) 872-3080",
    "lat": 46.7386,
    "lng": -117.0528,
    "website": null,
    "hours": null,
    "revenue": 47666,
    "rep": "Danny Thoren"
  },
  {
    "name": "Trove Cannabis",
    "address": "9034 BEAVER VALLEY ROAD",
    "city": "Chimacum",
    "state": "WA",
    "zip": "98325-8781",
    "phone": "(206) 681-8394",
    "lat": 48.0115,
    "lng": -122.7674,
    "website": null,
    "hours": null,
    "revenue": 47439,
    "rep": "Caitlin Stoner"
  },
  {
    "name": "The Bake Shop Yakima",
    "address": "19705 N GRIFFIN RD",
    "city": "Yakima",
    "state": "WA",
    "zip": "99350",
    "phone": "(509) 778-2512",
    "lat": 46.2481,
    "lng": -119.8514,
    "website": null,
    "hours": null,
    "revenue": 47145,
    "rep": "Jeremy Schmidt"
  },
  {
    "name": "Apex Cannabis - Pullman",
    "address": "955 W BROADWAY AVE",
    "city": "Pullman",
    "state": "WA",
    "zip": "98837",
    "phone": "(509) 499-0646",
    "lat": 47.1242,
    "lng": -119.2905,
    "website": null,
    "hours": null,
    "revenue": 46980,
    "rep": "Scotland Schieber"
  },
  {
    "name": "Nirvana Otis Orchards",
    "address": "4950 ARENA RD",
    "city": "Richland",
    "state": "WA",
    "zip": "99352-7857",
    "phone": "(509) 808-2391",
    "lat": 46.2574,
    "lng": -119.3385,
    "website": null,
    "hours": null,
    "revenue": 46563,
    "rep": "Jeremy Schmidt"
  },
  {
    "name": "Cannazone Bellingham",
    "address": "5655 GUIDE MERIDIAN STE B",
    "city": "Bellingham",
    "state": "WA",
    "zip": "98226-9722",
    "phone": "(860) 209-2288",
    "lat": 48.8466,
    "lng": -122.4866,
    "website": null,
    "hours": null,
    "revenue": 46458,
    "rep": "Caitlin Stoner"
  },
  {
    "name": "The Gallery Gig Harbor",
    "address": "14122 92ND AVE NW STE 2",
    "city": "Gig Harbor",
    "state": "WA",
    "zip": "98329-8868",
    "phone": "(253) 604-4360",
    "lat": 47.3864,
    "lng": -122.6599,
    "website": null,
    "hours": null,
    "revenue": 46340,
    "rep": "Caitlin Stoner"
  },
  {
    "name": "Ocean Greens",
    "address": "10524 AURORA AVE N",
    "city": "Seattle",
    "state": "WA",
    "zip": "98133-8812",
    "phone": "(206) 229-9893",
    "lat": 47.7059,
    "lng": -122.3443,
    "website": null,
    "hours": null,
    "revenue": 46156,
    "rep": "Ashlea Underwood"
  },
  {
    "name": "Have A Heart Skyway",
    "address": "12833 MARTIN LUTHER KING JR",
    "city": "Seattle",
    "state": "WA",
    "zip": "98178-3513",
    "phone": "(206) 261-8206",
    "lat": 47.4877,
    "lng": -122.259,
    "website": null,
    "hours": null,
    "revenue": 45989,
    "rep": "Ashlea Underwood"
  },
  {
    "name": "Novel Tree Bremerton",
    "address": "3720 KITSAP WAY STE AA",
    "city": "Bremerton",
    "state": "WA",
    "zip": "98312-2409",
    "phone": "(360) 616-2014",
    "lat": 47.5705,
    "lng": -122.6645,
    "website": null,
    "hours": null,
    "revenue": 45898,
    "rep": "Ashlea Underwood"
  },
  {
    "name": "Have A Heart Greenwood",
    "address": "12833 MARTIN LUTHER KING JR",
    "city": "Greenwood",
    "state": "WA",
    "zip": "98178-3513",
    "phone": "(206) 261-8206",
    "lat": 47.4877,
    "lng": -122.259,
    "website": null,
    "hours": null,
    "revenue": 43741,
    "rep": "Ashlea Underwood"
  },
  {
    "name": "Have A Heart Ocean Shores",
    "address": "12833 MARTIN LUTHER KING JR",
    "city": "Seattle",
    "state": "WA",
    "zip": "98178-3513",
    "phone": "(206) 261-8206",
    "lat": 47.4877,
    "lng": -122.259,
    "website": null,
    "hours": null,
    "revenue": 43590,
    "rep": "Ashlea Underwood"
  },
  {
    "name": "Cannazone Edmonds",
    "address": "7217 212TH ST SW",
    "city": "Edmonds",
    "state": "WA",
    "zip": "98026-7735",
    "phone": "(860) 209-2288",
    "lat": 47.8071,
    "lng": -122.3309,
    "website": null,
    "hours": null,
    "revenue": 42840,
    "rep": "Caitlin Stoner"
  },
  {
    "name": "Kaleafa Aberdeen",
    "address": "401 SOUTH BOONE",
    "city": "Aberdeen",
    "state": "WA",
    "zip": "98520-8508",
    "phone": "(312) 203-3450",
    "lat": 46.9659,
    "lng": -123.8029,
    "website": null,
    "hours": null,
    "revenue": 42597,
    "rep": "Caitlin Stoner"
  },
  {
    "name": "Altitude",
    "address": "260 MERLOT DR",
    "city": "Prosser",
    "state": "WA",
    "zip": "99350-9533",
    "phone": "(509) 786-4200",
    "lat": 46.2197,
    "lng": -119.7846,
    "website": null,
    "hours": null,
    "revenue": 42133,
    "rep": "Jeremy Schmidt"
  },
  {
    "name": "Toker Friendly",
    "address": "1515 S LYONS RD  STE B",
    "city": "Airway Heights",
    "state": "WA",
    "zip": "99001",
    "phone": "(509) 244-8728",
    "lat": 47.6417,
    "lng": -117.5713,
    "website": null,
    "hours": null,
    "revenue": 41554,
    "rep": "Jeremy Schmidt"
  },
  {
    "name": "Tokeland Cannabis",
    "address": "9034 BEAVER VALLEY ROAD",
    "city": "Chimacum",
    "state": "WA",
    "zip": "98325-8781",
    "phone": "(206) 681-8394",
    "lat": 48.0115,
    "lng": -122.7674,
    "website": null,
    "hours": null,
    "revenue": 41533,
    "rep": "Caitlin Stoner"
  },
  {
    "name": "Access Canibus",
    "address": "3082 WAITTS LAKE RD",
    "city": "Valley",
    "state": "WA",
    "zip": "99181",
    "phone": "(360) 470-3051",
    "lat": 48.1754,
    "lng": -117.7254,
    "website": null,
    "hours": null,
    "revenue": 41443,
    "rep": "Jeremy Schmidt"
  },
  {
    "name": "420 Spot Shop",
    "address": "1374 SE LUND AVE",
    "city": "Port Orchard",
    "state": "WA",
    "zip": "98366-5628",
    "phone": "(360) 340-5966",
    "lat": 47.5194,
    "lng": -122.6336,
    "website": null,
    "hours": null,
    "revenue": 41387,
    "rep": "Ashlea Underwood"
  },
  {
    "name": "Thunder Cannabis Olympia",
    "address": "9034 BEAVER VALLEY ROAD",
    "city": "Olympia",
    "state": "WA",
    "zip": "98325-8781",
    "phone": "(206) 681-8394",
    "lat": 48.0115,
    "lng": -122.7674,
    "website": null,
    "hours": null,
    "revenue": 41309,
    "rep": "Danny Thoren"
  },
  {
    "name": "Cannabis Super Store",
    "address": "705 EAST 1ST ST",
    "city": "Cle Elum",
    "state": "WA",
    "zip": "98922-1252",
    "phone": "(360) 631-1239",
    "lat": 47.1936,
    "lng": -120.9253,
    "website": null,
    "hours": null,
    "revenue": 41112,
    "rep": "Jeremy Schmidt"
  },
  {
    "name": "King Cronic",
    "address": "1110 E YELM AVE STE C",
    "city": "Yelm",
    "state": "WA",
    "zip": "98597-7690",
    "phone": "(206) 351-5957",
    "lat": 46.9357,
    "lng": -122.5932,
    "website": null,
    "hours": null,
    "revenue": 41099,
    "rep": "Ashlea Underwood"
  },
  {
    "name": "The Reef Capitol Hill",
    "address": "1525 E OLIVE WAY STE B",
    "city": "Capitol Hill",
    "state": "WA",
    "zip": "98122-2129",
    "phone": "(206) 755-6345",
    "lat": 47.6183,
    "lng": -122.3255,
    "website": null,
    "hours": null,
    "revenue": 40797,
    "rep": "Caitlin Stoner"
  },
  {
    "name": "Better Buds Silverdale",
    "address": "841 NESS CORNER RD  STE B",
    "city": "Port Hadlock",
    "state": "WA",
    "zip": "98339-9572",
    "phone": "(360) 731-6611",
    "lat": 48.0328,
    "lng": -122.7642,
    "website": null,
    "hours": null,
    "revenue": 40689,
    "rep": "Danny Thoren"
  },
  {
    "name": "Bud Hut Everett",
    "address": "11603 HWY 99",
    "city": "Everett",
    "state": "WA",
    "zip": "98204-4811",
    "phone": "(206) 693-2900",
    "lat": 47.8928,
    "lng": -122.2546,
    "website": null,
    "hours": null,
    "revenue": 40607,
    "rep": "Danny Thoren"
  },
  {
    "name": "The Root Cellar",
    "address": "23632 NE STATE ROUTE 3",
    "city": "Belfair",
    "state": "WA",
    "zip": "98528-8309",
    "phone": "(360) 434-8767",
    "lat": 47.4493,
    "lng": -122.8278,
    "website": null,
    "hours": null,
    "revenue": 40050,
    "rep": "Ashlea Underwood"
  },
  {
    "name": "Fire Cannabis Co Omak",
    "address": "903 ENGH RD SUITE D",
    "city": "Omak",
    "state": "WA",
    "zip": "98841-9627",
    "phone": "(720) 271-9997",
    "lat": 48.417,
    "lng": -119.5064,
    "website": null,
    "hours": null,
    "revenue": 39903,
    "rep": "Jeremy Schmidt"
  },
  {
    "name": "Anacortes Cannabis",
    "address": "7656 STATE ROUTE 20 UNIT A",
    "city": "Anacortes",
    "state": "WA",
    "zip": "98221-8311",
    "phone": "(360) 588-6222",
    "lat": 48.4626,
    "lng": -122.5813,
    "website": null,
    "hours": null,
    "revenue": 39761,
    "rep": "Danny Thoren"
  },
  {
    "name": "Freeland Cannabis",
    "address": "9034 BEAVER VALLEY ROAD",
    "city": "Freeland",
    "state": "WA",
    "zip": "98325-8781",
    "phone": "(206) 681-8394",
    "lat": 48.0115,
    "lng": -122.7674,
    "website": null,
    "hours": null,
    "revenue": 39516,
    "rep": "Danny Thoren"
  },
  {
    "name": "Fillabong Silverdale",
    "address": "2839 NW KITSAP PL STE A",
    "city": "Silverdale",
    "state": "WA",
    "zip": "98383-9447",
    "phone": "(360) 698-0353",
    "lat": 47.6548,
    "lng": -122.6878,
    "website": null,
    "hours": null,
    "revenue": 38855,
    "rep": "Caitlin Stoner"
  },
  {
    "name": "The Link Cannabis Co Longview",
    "address": "2211 46TH AVE",
    "city": "Longview",
    "state": "WA",
    "zip": "98632-5013",
    "phone": "(206) 200-0462",
    "lat": 46.1647,
    "lng": -122.9998,
    "website": null,
    "hours": null,
    "revenue": 38835,
    "rep": "Jeremy Schmidt"
  },
  {
    "name": "Bud Hut Friday Harbor",
    "address": "70 SALTSPRING DR  UNIT 2A",
    "city": "Friday Harbor",
    "state": "WA",
    "zip": "98250-9062",
    "phone": "(360) 668-1111",
    "lat": 48.5381,
    "lng": -123.0466,
    "website": null,
    "hours": null,
    "revenue": 38243,
    "rep": "Danny Thoren"
  },
  {
    "name": "Emerald Leaves",
    "address": "2609 6TH AVE STE 1",
    "city": "Tacoma",
    "state": "WA",
    "zip": "98406-7226",
    "phone": "(206) 482-5627",
    "lat": 47.2557,
    "lng": -122.4709,
    "website": null,
    "hours": null,
    "revenue": 37750,
    "rep": "Ashlea Underwood"
  },
  {
    "name": "Euphorium Lynnwood",
    "address": "21127 STATE ROUTE 9 SE",
    "city": "Lynnwood",
    "state": "WA",
    "zip": "98072-9703",
    "phone": "(425) 408-0556",
    "lat": 47.8055,
    "lng": -122.1429,
    "website": null,
    "hours": null,
    "revenue": 37474,
    "rep": "Ashlea Underwood"
  },
  {
    "name": "Kush Tribe Mukilteo",
    "address": "11834 NE 90TH ST",
    "city": "Mukilteo",
    "state": "WA",
    "zip": "98033-5814",
    "phone": "(425) 269-3242",
    "lat": 47.6826,
    "lng": -122.1818,
    "website": null,
    "hours": null,
    "revenue": 37115,
    "rep": "Scotland Schieber"
  },
  {
    "name": "Vault Seattle",
    "address": "11013 LAKE CITY WAY NE",
    "city": "Seattle",
    "state": "WA",
    "zip": "98125",
    "phone": "(425) 248-8559",
    "lat": 47.7091,
    "lng": -122.3015,
    "website": null,
    "hours": null,
    "revenue": 36414,
    "rep": "Ashlea Underwood"
  },
  {
    "name": "Growers Outlet",
    "address": "613 MONTANA AVE STE 2",
    "city": "South Bend",
    "state": "WA",
    "zip": "98586",
    "phone": "(360) 451-5888",
    "lat": 46.6684,
    "lng": -123.7865,
    "website": null,
    "hours": null,
    "revenue": 36188,
    "rep": "Caitlin Stoner"
  },
  {
    "name": "The Reef Bremerton",
    "address": "1107 N CALLOW AVE STE C",
    "city": "Bremerton",
    "state": "WA",
    "zip": "98312-3007",
    "phone": "(206) 686-6362",
    "lat": 47.5714,
    "lng": -122.6536,
    "website": null,
    "hours": null,
    "revenue": 35564,
    "rep": "Caitlin Stoner"
  },
  {
    "name": "Pot Zone Tacoma",
    "address": "814 72ND ST E",
    "city": "Tacoma",
    "state": "WA",
    "zip": "98404-1700",
    "phone": "(253) 212-2884",
    "lat": 47.1913,
    "lng": -122.42,
    "website": null,
    "hours": null,
    "revenue": 35539,
    "rep": "Ashlea Underwood"
  },
  {
    "name": "Cutie Judy's",
    "address": "5613 OLYMPIC HWY",
    "city": "Aberdeen",
    "state": "WA",
    "zip": "98520-8866",
    "phone": "(360) 495-5938",
    "lat": 46.9714,
    "lng": -123.7154,
    "website": null,
    "hours": null,
    "revenue": 35337,
    "rep": "Jeremy Schmidt"
  },
  {
    "name": "Lucky Leaf Co. - Downtown Pasco",
    "address": "528 W Clark St",
    "city": "Pasco",
    "state": "WA",
    "zip": "99301",
    "phone": "(509) 380-0036",
    "lat": 46.2349,
    "lng": -119.1051,
    "website": "https://luckyleaf.co/",
    "hours": "Daily 8a-11p",
    "revenue": 34969,
    "rep": "Scotland Schieber"
  },
  {
    "name": "Primo Cannabis",
    "address": "21630 E GILBERT AVE",
    "city": "Otis Orchards",
    "state": "WA",
    "zip": "99027-9241",
    "phone": "(509) 927-9333",
    "lat": 47.7078,
    "lng": -117.1134,
    "website": null,
    "hours": null,
    "revenue": 34868,
    "rep": "Jeremy Schmidt"
  },
  {
    "name": "The Kushery Monroe",
    "address": "5626 134TH PL SE STE B",
    "city": "Monroe",
    "state": "WA",
    "zip": "98208-5615",
    "phone": "(425) 633-7515",
    "lat": 47.8766,
    "lng": -122.1563,
    "website": null,
    "hours": null,
    "revenue": 34750,
    "rep": "Ashlea Underwood"
  },
  {
    "name": "Craft Cannabis South Wenatchee",
    "address": "1510 N WENATCHEE AVE",
    "city": "Wenatchee",
    "state": "WA",
    "zip": "98801-1157",
    "phone": "(509) 679-9999",
    "lat": 47.4445,
    "lng": -120.3281,
    "website": null,
    "hours": null,
    "revenue": 34691,
    "rep": "Ashlea Underwood"
  },
  {
    "name": "Green Life Cannabis",
    "address": "3012 GS CENTER RD STE A",
    "city": "Wenatchee",
    "state": "WA",
    "zip": "98801-9116",
    "phone": "(281) 726-0614",
    "lat": 47.4718,
    "lng": -120.3323,
    "website": null,
    "hours": null,
    "revenue": 34543,
    "rep": "Jeremy Schmidt"
  },
  {
    "name": "Salish Coast Cannabis",
    "address": "9034 BEAVER VALLEY ROAD",
    "city": "Chimacum",
    "state": "WA",
    "zip": "98325-8781",
    "phone": "(206) 681-8394",
    "lat": 48.0115,
    "lng": -122.7674,
    "website": null,
    "hours": null,
    "revenue": 34414,
    "rep": "Danny Thoren"
  },
  {
    "name": "The Joint Tacoma",
    "address": "7233 SOUTH TACOMA WAY",
    "city": "Tacoma",
    "state": "WA",
    "zip": "98409-3933",
    "phone": "(425) 471-0283",
    "lat": 47.1908,
    "lng": -122.4829,
    "website": null,
    "hours": null,
    "revenue": 33946,
    "rep": "Ashlea Underwood"
  },
  {
    "name": "Lovely Buds Division",
    "address": "1403 N DIVISION ST STE A",
    "city": "Spokane",
    "state": "WA",
    "zip": "99202-1810",
    "phone": "(208) 290-4347",
    "lat": 47.6709,
    "lng": -117.4117,
    "website": null,
    "hours": null,
    "revenue": 33402,
    "rep": "Jeremy Schmidt"
  },
  {
    "name": "The Joint U District",
    "address": "14325 1ST AVE S STE 101",
    "city": "Burien",
    "state": "WA",
    "zip": "98168-3418",
    "phone": "(206) 225-5555",
    "lat": 47.4743,
    "lng": -122.3342,
    "website": null,
    "hours": null,
    "revenue": 33257,
    "rep": "Ashlea Underwood"
  },
  {
    "name": "The Bake Shop George",
    "address": "19705 N GRIFFIN RD",
    "city": "Prosser",
    "state": "WA",
    "zip": "99350",
    "phone": "(509) 778-2512",
    "lat": 46.2481,
    "lng": -119.8514,
    "website": null,
    "hours": null,
    "revenue": 32862,
    "rep": "Jeremy Schmidt"
  },
  {
    "name": "The Kushery Stanwood",
    "address": "27206 88TH AVE NW",
    "city": "Stanwood",
    "state": "WA",
    "zip": "98292",
    "phone": "(425) 633-7515",
    "lat": 48.2433,
    "lng": -122.3518,
    "website": null,
    "hours": null,
    "revenue": 32822,
    "rep": "Ashlea Underwood"
  },
  {
    "name": "Westside 420 Recreational",
    "address": "4503 OCEAN BEACH HWY STE 103",
    "city": "Longview",
    "state": "WA",
    "zip": "98632-5055",
    "phone": "(360) 423-5261",
    "lat": 46.1625,
    "lng": -122.9988,
    "website": null,
    "hours": null,
    "revenue": 32791,
    "rep": "Jeremy Schmidt"
  },
  {
    "name": "Cascade Kropz",
    "address": "19127 SMOKEY POINT BLVD BLDG 1",
    "city": "Arlington",
    "state": "WA",
    "zip": "98223-4264",
    "phone": "(360) 659-5422",
    "lat": 48.1703,
    "lng": -122.1876,
    "website": null,
    "hours": null,
    "revenue": 32429,
    "rep": "Ashlea Underwood"
  },
  {
    "name": "Hangar 420 (Lynnwood)",
    "address": "15919 HWY 99",
    "city": "Lynnwood",
    "state": "WA",
    "zip": "98087-1427",
    "phone": "(425) 949-2873",
    "lat": 47.8545,
    "lng": -122.2903,
    "website": null,
    "hours": null,
    "revenue": 32257,
    "rep": "Scotland Schieber"
  },
  {
    "name": "Yakima Weed Co North",
    "address": "1606 FRUITVALE BLVD",
    "city": "Yakima",
    "state": "WA",
    "zip": "98902-1237",
    "phone": "(206) 682-6644",
    "lat": 46.6122,
    "lng": -120.5311,
    "website": null,
    "hours": null,
    "revenue": 31868,
    "rep": "Jeremy Schmidt"
  },
  {
    "name": "Golden Dispensaries",
    "address": "650 LLAMA LN",
    "city": "Goldendale",
    "state": "WA",
    "zip": "98620-9140",
    "phone": "(509) 773-0700",
    "lat": 45.8268,
    "lng": -120.8046,
    "website": null,
    "hours": null,
    "revenue": 31635,
    "rep": "Jeremy Schmidt"
  },
  {
    "name": "Piece of Mind Bellingham",
    "address": "100 E MAPLE ST STE A",
    "city": "Bellingham",
    "state": "WA",
    "zip": "98225-5006",
    "phone": "(206) 229-1067",
    "lat": 48.7474,
    "lng": -122.4823,
    "website": null,
    "hours": null,
    "revenue": 31093,
    "rep": "Danny Thoren"
  },
  {
    "name": "Super Chronic Club Lacey",
    "address": "6326 MARTIN WAY E STE 103",
    "city": "Lacey",
    "state": "WA",
    "zip": "98516-5561",
    "phone": "(206) 412-7285",
    "lat": 47.0508,
    "lng": -122.7971,
    "website": null,
    "hours": null,
    "revenue": 31034,
    "rep": "Jeremy Schmidt"
  },
  {
    "name": "Have A Heart Bothell",
    "address": "22624 MERIDIAN AVE S STE B",
    "city": "Bothell",
    "state": "WA",
    "zip": "98021-8358",
    "phone": "(206) 261-8206",
    "lat": 47.792,
    "lng": -122.2335,
    "website": null,
    "hours": null,
    "revenue": 30602,
    "rep": "Ashlea Underwood"
  },
  {
    "name": "Vault Cannabis Spokane",
    "address": "9626 32ND ST SE",
    "city": "Spokane",
    "state": "WA",
    "zip": "98205",
    "phone": "(425) 248-8559",
    "lat": 47.9669,
    "lng": -122.1015,
    "website": null,
    "hours": null,
    "revenue": 30137,
    "rep": "Ashlea Underwood"
  },
  {
    "name": "Tru Greenthumb",
    "address": "1254 MT SAINT HELENS WAY NE #C",
    "city": "Castle Rock",
    "state": "WA",
    "zip": "98611-9010",
    "phone": "(360) 967-2634",
    "lat": 46.2866,
    "lng": -122.8993,
    "website": null,
    "hours": null,
    "revenue": 29909,
    "rep": "Ashlea Underwood"
  },
  {
    "name": "2020 Solutions Pacific",
    "address": "1615 BASIN ST SW",
    "city": "Ephrata",
    "state": "WA",
    "zip": "98823-2134",
    "phone": "(360) 915-4944",
    "lat": 47.3048,
    "lng": -119.5635,
    "website": null,
    "hours": null,
    "revenue": 29502,
    "rep": "Caitlin Stoner"
  },
  {
    "name": "STONR Cannabis",
    "address": "9034 BEAVER VALLEY ROAD",
    "city": "Chimacum",
    "state": "WA",
    "zip": "98325-8781",
    "phone": "(206) 681-8394",
    "lat": 48.0115,
    "lng": -122.7674,
    "website": null,
    "hours": null,
    "revenue": 29272,
    "rep": "Scotland Schieber"
  },
  {
    "name": "American Harvest",
    "address": "7550 US HWY 97",
    "city": "Peshastin",
    "state": "WA",
    "zip": "98847",
    "phone": "(503) 317-7035",
    "lat": 47.5548,
    "lng": -120.6027,
    "website": null,
    "hours": null,
    "revenue": 29236,
    "rep": "Jeremy Schmidt"
  },
  {
    "name": "Gypsy Greens Chehalis",
    "address": "1570 N NATIONAL AVE STE 105",
    "city": "Chehalis",
    "state": "WA",
    "zip": "98532-2215",
    "phone": "(505) 550-7710",
    "lat": 46.6744,
    "lng": -122.9693,
    "website": null,
    "hours": null,
    "revenue": 28836,
    "rep": "Jeremy Schmidt"
  },
  {
    "name": "Green Dreams",
    "address": "8529 52ND ST SE",
    "city": "Snohomish",
    "state": "WA",
    "zip": "98290-9282",
    "phone": "(425) 263-9972",
    "lat": 47.9496,
    "lng": -122.1169,
    "website": null,
    "hours": null,
    "revenue": 28611,
    "rep": "Danny Thoren"
  },
  {
    "name": "2020 Solutions Iron",
    "address": "1615 BASIN ST SW",
    "city": "Ephrata",
    "state": "WA",
    "zip": "98823-2134",
    "phone": "(360) 915-4944",
    "lat": 47.3048,
    "lng": -119.5635,
    "website": null,
    "hours": null,
    "revenue": 28496,
    "rep": "Caitlin Stoner"
  },
  {
    "name": "Forbidden Cannabis Club Okanogan",
    "address": "2108 ELMWAY UNIT A",
    "city": "Okanogan",
    "state": "WA",
    "zip": "98840-9621",
    "phone": "(253) 224-1442",
    "lat": 48.3811,
    "lng": -119.5606,
    "website": null,
    "hours": null,
    "revenue": 28423,
    "rep": "Jeremy Schmidt"
  },
  {
    "name": "420 Elma on Main",
    "address": "306 W MAIN ST",
    "city": "Elma",
    "state": "WA",
    "zip": "98541",
    "phone": "(253) 906-1919",
    "lat": 47.0044,
    "lng": -123.4043,
    "website": null,
    "hours": null,
    "revenue": 28364,
    "rep": "Jeremy Schmidt"
  },
  {
    "name": "Floyd's Cannabis Everett",
    "address": "4218 RUCKER AVE",
    "city": "Everett",
    "state": "WA",
    "zip": "98203-2214",
    "phone": "(206) 547-1914",
    "lat": 47.9613,
    "lng": -122.2112,
    "website": null,
    "hours": null,
    "revenue": 28346,
    "rep": "Danny Thoren"
  },
  {
    "name": "Cinder (Valley)",
    "address": "1421 N MULLAN RD STE B",
    "city": "Spokane Valley",
    "state": "WA",
    "zip": "99206-4051",
    "phone": "(509) 241-3726",
    "lat": 47.6702,
    "lng": -117.282,
    "website": null,
    "hours": null,
    "revenue": 27845,
    "rep": "Jeremy Schmidt"
  },
  {
    "name": "PRC Bothell",
    "address": "18729 FIR ISLAND RD STE C",
    "city": "Bothell",
    "state": "WA",
    "zip": "98273-8159",
    "phone": "(360) 445-6221",
    "lat": 48.3416,
    "lng": -122.3408,
    "website": null,
    "hours": null,
    "revenue": 27832,
    "rep": "Ashlea Underwood"
  },
  {
    "name": "Greenfield Cannabis",
    "address": "9034 BEAVER VALLEY ROAD",
    "city": "Chimacum",
    "state": "WA",
    "zip": "98325-8781",
    "phone": "(206) 681-8394",
    "lat": 48.0115,
    "lng": -122.7674,
    "website": null,
    "hours": null,
    "revenue": 27774,
    "rep": "Jeremy Schmidt"
  },
  {
    "name": "Kush Klub",
    "address": "11834 NE 90TH ST",
    "city": "Kirkland",
    "state": "WA",
    "zip": "98033-5814",
    "phone": "(425) 269-3242",
    "lat": 47.6826,
    "lng": -122.1818,
    "website": null,
    "hours": null,
    "revenue": 27319,
    "rep": "Scotland Schieber"
  },
  {
    "name": "Starbuds - Bellingham",
    "address": "145 SAMISH WAY",
    "city": "Bellingham",
    "state": "WA",
    "zip": "98225-6033",
    "phone": "(206) 225-5555",
    "lat": 48.734,
    "lng": -122.4694,
    "website": null,
    "hours": null,
    "revenue": 26888,
    "rep": "Ashlea Underwood"
  },
  {
    "name": "Euphorium Vashon",
    "address": "21127 STATE ROUTE 9 SE",
    "city": "Woodinville",
    "state": "WA",
    "zip": "98072-9703",
    "phone": "(425) 408-0556",
    "lat": 47.8055,
    "lng": -122.1429,
    "website": null,
    "hours": null,
    "revenue": 26829,
    "rep": "Ashlea Underwood"
  },
  {
    "name": "Smokane",
    "address": "3801 E SPRAGUE AVE",
    "city": "Spokane",
    "state": "WA",
    "zip": "99202",
    "phone": "(206) 910-0199",
    "lat": 47.6575,
    "lng": -117.3544,
    "website": null,
    "hours": null,
    "revenue": 25753,
    "rep": "Jeremy Schmidt"
  },
  {
    "name": "Kaleafa Oak Harbor",
    "address": "33858 SR 20 STE 102",
    "city": "Oak Harbor",
    "state": "WA",
    "zip": "98277-2664",
    "phone": "(312) 203-3450",
    "lat": 48.3158,
    "lng": -122.6318,
    "website": null,
    "hours": null,
    "revenue": 25732,
    "rep": "Danny Thoren"
  },
  {
    "name": "Forbidden Cannabis Club Carson",
    "address": "2413 E UNION ST",
    "city": "Seattle",
    "state": "WA",
    "zip": "98122-3045",
    "phone": null,
    "lat": 47.6127,
    "lng": -122.3008,
    "website": null,
    "hours": null,
    "revenue": 25315,
    "rep": "Jeremy Schmidt"
  },
  {
    "name": "365 Recreational Dayton",
    "address": "36711 U.S. HIGHWAY 12",
    "city": "Dayton",
    "state": "WA",
    "zip": "98328-8622",
    "phone": "(509) 382-3161",
    "lat": 46.3111,
    "lng": -117.9943,
    "website": null,
    "hours": null,
    "revenue": 25294,
    "rep": "Jeremy Schmidt"
  },
  {
    "name": "The Kushery Lake Forest Park",
    "address": "5626 134TH PL SE STE B",
    "city": "Everett",
    "state": "WA",
    "zip": "98208-5615",
    "phone": "(425) 633-7515",
    "lat": 47.8766,
    "lng": -122.1563,
    "website": null,
    "hours": null,
    "revenue": 25085,
    "rep": "Ashlea Underwood"
  },
  {
    "name": "Greenfoot Cannabis",
    "address": "9034 BEAVER VALLEY ROAD",
    "city": "Chimacum",
    "state": "WA",
    "zip": "98325-8781",
    "phone": "(206) 681-8394",
    "lat": 48.0115,
    "lng": -122.7674,
    "website": null,
    "hours": null,
    "revenue": 25030,
    "rep": "Ashlea Underwood"
  },
  {
    "name": "Fweedom Cannabis Mountlake Terrace",
    "address": "21911 64TH AVE W   STE D",
    "city": "Mountlake Terrace",
    "state": "WA",
    "zip": "98043",
    "phone": "(425) 954-0640",
    "lat": 47.8,
    "lng": -122.3189,
    "website": null,
    "hours": null,
    "revenue": 24973,
    "rep": "Ashlea Underwood"
  },
  {
    "name": "Lovely Buds North",
    "address": "1919 E FRANCIS AVE  STE B",
    "city": "Spokane",
    "state": "WA",
    "zip": "99208-2747",
    "phone": "(406) 546-5411",
    "lat": 47.7152,
    "lng": -117.3805,
    "website": null,
    "hours": null,
    "revenue": 24744,
    "rep": "Jeremy Schmidt"
  },
  {
    "name": "THC of Olympia",
    "address": "3203 MARTIN WAY E STE D",
    "city": "Olympia",
    "state": "WA",
    "zip": "98506-4951",
    "phone": "(360) 528-1719",
    "lat": 47.0464,
    "lng": -122.8526,
    "website": null,
    "hours": null,
    "revenue": 24396,
    "rep": "Caitlin Stoner"
  },
  {
    "name": "Green Leaf Bellingham",
    "address": "4220 MERIDIAN ST STE 102",
    "city": "Bellingham",
    "state": "WA",
    "zip": "98226-9153",
    "phone": "(360) 526-2198",
    "lat": 48.7945,
    "lng": -122.4854,
    "website": null,
    "hours": null,
    "revenue": 24364,
    "rep": "Caitlin Stoner"
  },
  {
    "name": "Yakima Weed Co South",
    "address": "1606 FRUITVALE BLVD",
    "city": "Yakima",
    "state": "WA",
    "zip": "98902-1237",
    "phone": "(206) 682-6644",
    "lat": 46.6122,
    "lng": -120.5311,
    "website": null,
    "hours": null,
    "revenue": 24325,
    "rep": "Jeremy Schmidt"
  },
  {
    "name": "Fillabong Bremerton",
    "address": "3249 PERRY AVE STE B",
    "city": "Bremerton",
    "state": "WA",
    "zip": "98310-5371",
    "phone": "(360) 443-2293",
    "lat": 47.5937,
    "lng": -122.6142,
    "website": null,
    "hours": null,
    "revenue": 24217,
    "rep": "Caitlin Stoner"
  },
  {
    "name": "Theorem Cannabis",
    "address": "6251 NE BOTHELL WAY STE 100",
    "city": "Kenmore",
    "state": "WA",
    "zip": "98028-8941",
    "phone": "(425) 406-6797",
    "lat": 47.7583,
    "lng": -122.2574,
    "website": null,
    "hours": null,
    "revenue": 24202,
    "rep": "Ashlea Underwood"
  },
  {
    "name": "Frosted Cannabis Sprague",
    "address": "4123 E SPRAGUE AVE STE A",
    "city": "Spokane",
    "state": "WA",
    "zip": "99202-4850",
    "phone": "(509) 474-0461",
    "lat": 47.6576,
    "lng": -117.3491,
    "website": null,
    "hours": null,
    "revenue": 23678,
    "rep": "Jeremy Schmidt"
  },
  {
    "name": "The Bakeree Belltown",
    "address": "74 S LUCILE ST  STE 102",
    "city": "Seattle",
    "state": "WA",
    "zip": "98134-2444",
    "phone": "(206) 659-0574",
    "lat": 47.5536,
    "lng": -122.3356,
    "website": null,
    "hours": null,
    "revenue": 23290,
    "rep": "Caitlin Stoner"
  },
  {
    "name": "Cannabis Provisions Inc Shoreline",
    "address": "938 N 200TH ST STE C",
    "city": "Shoreline",
    "state": "WA",
    "zip": "98133-3149",
    "phone": "(206) 629-5235",
    "lat": 47.7744,
    "lng": -122.3468,
    "website": null,
    "hours": null,
    "revenue": 23082,
    "rep": "Danny Thoren"
  },
  {
    "name": "House of Cannabis Twisp",
    "address": "1017 E METHOW VALLEY HWY",
    "city": "Twisp",
    "state": "WA",
    "zip": "98856",
    "phone": "(253) 241-3261",
    "lat": 48.3582,
    "lng": -120.1118,
    "website": null,
    "hours": null,
    "revenue": 22783,
    "rep": "Jeremy Schmidt"
  },
  {
    "name": "The Reef Georgetown",
    "address": "1107 N CALLOW AVE STE C",
    "city": "Bremerton",
    "state": "WA",
    "zip": "98312-3007",
    "phone": "(206) 686-6362",
    "lat": 47.5714,
    "lng": -122.6536,
    "website": null,
    "hours": null,
    "revenue": 22622,
    "rep": "Caitlin Stoner"
  },
  {
    "name": "Cinder (North)",
    "address": "1421 N MULLAN RD STE B",
    "city": "Spokane Valley",
    "state": "WA",
    "zip": "99206-4051",
    "phone": "(509) 241-3726",
    "lat": 47.6702,
    "lng": -117.282,
    "website": null,
    "hours": null,
    "revenue": 22500,
    "rep": "Jeremy Schmidt"
  },
  {
    "name": "The Kushery Cathcart",
    "address": "5626 134TH PL SE STE B",
    "city": "Everett",
    "state": "WA",
    "zip": "98208-5615",
    "phone": "(425) 633-7515",
    "lat": 47.8766,
    "lng": -122.1563,
    "website": null,
    "hours": null,
    "revenue": 21973,
    "rep": "Ashlea Underwood"
  },
  {
    "name": "Buds Garage Everett",
    "address": "3015 EVERETT AVE",
    "city": "Everett",
    "state": "WA",
    "zip": "98201-3822",
    "phone": "(425) 321-9471",
    "lat": 47.982,
    "lng": -122.19,
    "website": null,
    "hours": null,
    "revenue": 21465,
    "rep": "Danny Thoren"
  },
  {
    "name": "2020 Solutions Mt Baker Hwy",
    "address": "1615 BASIN ST SW",
    "city": "Ephrata",
    "state": "WA",
    "zip": "98823-2134",
    "phone": "(360) 915-4944",
    "lat": 47.3048,
    "lng": -119.5635,
    "website": null,
    "hours": null,
    "revenue": 21203,
    "rep": "Caitlin Stoner"
  },
  {
    "name": "Kush Klub Tukwila",
    "address": "11834 NE 90TH ST",
    "city": "Tukwila",
    "state": "WA",
    "zip": "98033-5814",
    "phone": "(425) 269-3242",
    "lat": 47.6826,
    "lng": -122.1818,
    "website": null,
    "hours": null,
    "revenue": 21057,
    "rep": "Scotland Schieber"
  },
  {
    "name": "Mr Greens (Crossmatch)",
    "address": "15029 BOTHELL WAY NE STE 100",
    "city": "Lake Forest Park",
    "state": "WA",
    "zip": "98155-7600",
    "phone": "(206) 920-2178",
    "lat": 47.739,
    "lng": -122.2907,
    "website": null,
    "hours": null,
    "revenue": 20854,
    "rep": "Ashlea Underwood"
  },
  {
    "name": "Floyd's Cannabis Port Angeles",
    "address": "1403 E 1ST STREET",
    "city": "Port Angeles",
    "state": "WA",
    "zip": "98362-4607",
    "phone": "(206) 853-0645",
    "lat": 48.1093,
    "lng": -123.4093,
    "website": null,
    "hours": null,
    "revenue": 20724,
    "rep": "Danny Thoren"
  },
  {
    "name": "Freedom Market Cathlamet",
    "address": "327 SR 4",
    "city": "Cathlamet",
    "state": "WA",
    "zip": "98612",
    "phone": "(360) 703-6090",
    "lat": 46.1956,
    "lng": -123.3635,
    "website": null,
    "hours": null,
    "revenue": 20401,
    "rep": "Scotland Schieber"
  },
  {
    "name": "The Kushery Clearview",
    "address": "5626 134TH PL SE STE B",
    "city": "Everett",
    "state": "WA",
    "zip": "98208-5615",
    "phone": "(425) 633-7515",
    "lat": 47.8766,
    "lng": -122.1563,
    "website": null,
    "hours": null,
    "revenue": 20239,
    "rep": "Ashlea Underwood"
  },
  {
    "name": "High Life Cannabis",
    "address": "5978 HIGHWAY 291 UNIT 6",
    "city": "Nine Mile Falls",
    "state": "WA",
    "zip": "99026-9556",
    "phone": "(208) 610-2829",
    "lat": 47.8154,
    "lng": -117.5761,
    "website": null,
    "hours": null,
    "revenue": 20194,
    "rep": "Jeremy Schmidt"
  },
  {
    "name": "Sweet Leaf Cannabis Co.",
    "address": "100 OLD HILL RD",
    "city": "Aberdeen",
    "state": "WA",
    "zip": "98520-7300",
    "phone": "(360) 532-5758",
    "lat": 46.9733,
    "lng": -123.6913,
    "website": null,
    "hours": null,
    "revenue": 20003,
    "rep": "Caitlin Stoner"
  },
  {
    "name": "Sage Shop Omak",
    "address": "309 N MAIN ST",
    "city": "Omak",
    "state": "WA",
    "zip": "98841-9745",
    "phone": "(509) 322-5286",
    "lat": 48.4144,
    "lng": -119.5297,
    "website": null,
    "hours": null,
    "revenue": 19822,
    "rep": "Jeremy Schmidt"
  },
  {
    "name": "Sweet Jane - Edmonds",
    "address": "9705 STATE ROUTE 302 NW # B",
    "city": "Edmonds",
    "state": "WA",
    "zip": "98329-7102",
    "phone": "(253) 245-7831",
    "lat": 47.3892,
    "lng": -122.665,
    "website": null,
    "hours": null,
    "revenue": 19744,
    "rep": "Ashlea Underwood"
  },
  {
    "name": "Diamond Green",
    "address": "4002 S 12TH ST",
    "city": "Tacoma",
    "state": "WA",
    "zip": "98405-1509",
    "phone": "(253) 222-5697",
    "lat": 47.2497,
    "lng": -122.4905,
    "website": null,
    "hours": null,
    "revenue": 19509,
    "rep": "Ashlea Underwood"
  },
  {
    "name": "House of Cannabis Tonasket",
    "address": "309 4TH ST W STE A",
    "city": "Tonasket",
    "state": "WA",
    "zip": "98855",
    "phone": "(253) 241-3261",
    "lat": 48.7058,
    "lng": -119.445,
    "website": null,
    "hours": null,
    "revenue": 19384,
    "rep": "Jeremy Schmidt"
  },
  {
    "name": "Goobie's Doobies",
    "address": "28730 MAPLE VALLEY BLACK",
    "city": "Maple Valley",
    "state": "WA",
    "zip": "98038-8195",
    "phone": "(253) 459-5741",
    "lat": 47.3437,
    "lng": -122.0178,
    "website": null,
    "hours": null,
    "revenue": 19097,
    "rep": "Danny Thoren"
  },
  {
    "name": "Dank of America",
    "address": "5309 GUIDE MERIDIAN STE A",
    "city": "Bellingham",
    "state": "WA",
    "zip": "98226-7454",
    "phone": "(425) 231-4439",
    "lat": 48.8336,
    "lng": -122.4865,
    "website": null,
    "hours": null,
    "revenue": 18586,
    "rep": "Danny Thoren"
  },
  {
    "name": "House of Cannabis Tacoma",
    "address": "764 S 56TH ST",
    "city": "Tacoma",
    "state": "WA",
    "zip": "98408",
    "phone": "(253) 241-3261",
    "lat": 47.2062,
    "lng": -122.4427,
    "website": null,
    "hours": null,
    "revenue": 18558,
    "rep": "Jeremy Schmidt"
  },
  {
    "name": "Happy Trees Prosser",
    "address": "407 E 1ST ST",
    "city": "Prosser",
    "state": "WA",
    "zip": "98922-1255",
    "phone": "(253) 226-2135",
    "lat": 47.1945,
    "lng": -120.9327,
    "website": null,
    "hours": null,
    "revenue": 18475,
    "rep": "Jeremy Schmidt"
  },
  {
    "name": "Budeez",
    "address": "2111 E 11TH ST",
    "city": "Bremerton",
    "state": "WA",
    "zip": "98310-4810",
    "phone": "(360) 620-7114",
    "lat": 47.5701,
    "lng": -122.6152,
    "website": null,
    "hours": null,
    "revenue": 18439,
    "rep": "Danny Thoren"
  },
  {
    "name": "Happy Trees Cle Elum",
    "address": "407 E 1ST ST",
    "city": "Cle Elum",
    "state": "WA",
    "zip": "98922-1255",
    "phone": "(253) 226-2135",
    "lat": 47.1945,
    "lng": -120.9327,
    "website": null,
    "hours": null,
    "revenue": 18299,
    "rep": "Jeremy Schmidt"
  },
  {
    "name": "Cinder (Downtown)",
    "address": "927 W 2ND AVE STE 1",
    "city": "Spokane",
    "state": "WA",
    "zip": "99201-4501",
    "phone": "(509) 241-0110",
    "lat": 47.6541,
    "lng": -117.4263,
    "website": null,
    "hours": null,
    "revenue": 18032,
    "rep": "Jeremy Schmidt"
  },
  {
    "name": "Cascade Herb - Ferndale",
    "address": "6167 PORTAL WAY",
    "city": "Ferndale",
    "state": "WA",
    "zip": "98248-9363",
    "phone": "(360) 746-8587",
    "lat": 48.8654,
    "lng": -122.5851,
    "website": null,
    "hours": null,
    "revenue": 17938,
    "rep": "Caitlin Stoner"
  },
  {
    "name": "Natural Green Cannabis",
    "address": "51 MORGAN ST UNIT B",
    "city": "Davenport",
    "state": "WA",
    "zip": "99122",
    "phone": "(206) 226-9725",
    "lat": 47.6538,
    "lng": -118.1417,
    "website": null,
    "hours": null,
    "revenue": 17476,
    "rep": "Jeremy Schmidt"
  },
  {
    "name": "The Kushery Evergreen",
    "address": "5626 134TH PL SE STE B",
    "city": "Everett",
    "state": "WA",
    "zip": "98208-5615",
    "phone": "(425) 633-7515",
    "lat": 47.8766,
    "lng": -122.1563,
    "website": null,
    "hours": null,
    "revenue": 17450,
    "rep": "Ashlea Underwood"
  },
  {
    "name": "TJ's Cannabis",
    "address": "9034 BEAVER VALLEY ROAD",
    "city": "Chimacum",
    "state": "WA",
    "zip": "98325-8781",
    "phone": "(206) 681-8394",
    "lat": 48.0115,
    "lng": -122.7674,
    "website": null,
    "hours": null,
    "revenue": 17222,
    "rep": "Ashlea Underwood"
  },
  {
    "name": "Greenway",
    "address": "4851 GEIGER RD SE",
    "city": "Port Orchard",
    "state": "WA",
    "zip": "98366-9350",
    "phone": "(360) 443-6988",
    "lat": 47.5046,
    "lng": -122.6384,
    "website": null,
    "hours": null,
    "revenue": 16790,
    "rep": "Scotland Schieber"
  },
  {
    "name": "Kitsap Cannabis Port Orchard",
    "address": "4255 SE MILE HILL DR #101",
    "city": "Port Orchard",
    "state": "WA",
    "zip": "98366-3920",
    "phone": "(360) 865-8092",
    "lat": 47.5347,
    "lng": -122.5955,
    "website": null,
    "hours": null,
    "revenue": 16485,
    "rep": "Danny Thoren"
  },
  {
    "name": "Fatties Cannabis Shop",
    "address": "9034 BEAVER VALLEY ROAD",
    "city": "Chimacum",
    "state": "WA",
    "zip": "98325-8781",
    "phone": "(206) 681-8394",
    "lat": 48.0115,
    "lng": -122.7674,
    "website": null,
    "hours": null,
    "revenue": 16416,
    "rep": "Danny Thoren"
  },
  {
    "name": "Dockside Cannabis Ballard",
    "address": "4601 LEARY WAY NW",
    "city": "Ballard",
    "state": "WA",
    "zip": "98107-4544",
    "phone": "(206) 806-8742",
    "lat": 47.6624,
    "lng": -122.3684,
    "website": null,
    "hours": null,
    "revenue": 15652,
    "rep": "Caitlin Stoner"
  },
  {
    "name": "395 Herb",
    "address": "3948B 3RD AVE UNIT 2",
    "city": "Loon Lake",
    "state": "WA",
    "zip": "99148-9683",
    "phone": "(509) 644-0420",
    "lat": 48.0614,
    "lng": -117.6219,
    "website": null,
    "hours": null,
    "revenue": 15218,
    "rep": "Jeremy Schmidt"
  },
  {
    "name": "Mr. Doobees - NBA",
    "address": "1410 40TH ST",
    "city": "Seaview",
    "state": "WA",
    "zip": "98644-2037",
    "phone": "(360) 875-8016",
    "lat": 46.3309,
    "lng": -124.0535,
    "website": null,
    "hours": null,
    "revenue": 15163,
    "rep": "Caitlin Stoner"
  },
  {
    "name": "Zen Den",
    "address": "257 ENGH RD",
    "city": "Omak",
    "state": "WA",
    "zip": "98841-9472",
    "phone": "(509) 699-0471",
    "lat": 48.4364,
    "lng": -119.4885,
    "website": null,
    "hours": null,
    "revenue": 14978,
    "rep": "Jeremy Schmidt"
  },
  {
    "name": "Loving Farms",
    "address": "2615 OLD HIGHWAY 99 S",
    "city": "Mount Vernon",
    "state": "WA",
    "zip": "98273",
    "phone": "(360) 540-5168",
    "lat": 48.4005,
    "lng": -122.336,
    "website": null,
    "hours": null,
    "revenue": 14715,
    "rep": "Danny Thoren"
  },
  {
    "name": "Smuggler Brothers",
    "address": "1912 STATE ROUTE 20",
    "city": "Sedro Woolley",
    "state": "WA",
    "zip": "98284",
    "phone": "(360) 647-3437",
    "lat": 48.4958,
    "lng": -122.2731,
    "website": null,
    "hours": null,
    "revenue": 14680,
    "rep": "Danny Thoren"
  },
  {
    "name": "Carter's Cannabis",
    "address": "9034 BEAVER VALLEY ROAD",
    "city": "Chimacum",
    "state": "WA",
    "zip": "98325-8781",
    "phone": "(206) 681-8394",
    "lat": 48.0115,
    "lng": -122.7674,
    "website": null,
    "hours": null,
    "revenue": 14388,
    "rep": "Jeremy Schmidt"
  },
  {
    "name": "Novel Tree Bellevue",
    "address": "1817 130TH AVE NE SUITE B",
    "city": "Bellevue",
    "state": "WA",
    "zip": "98005-2225",
    "phone": "(360) 930-1700",
    "lat": 47.627,
    "lng": -122.1676,
    "website": null,
    "hours": null,
    "revenue": 13919,
    "rep": "Ashlea Underwood"
  },
  {
    "name": "Better Buds Port Hadlock",
    "address": "841 NESS CORNER RD  STE B",
    "city": "Port Hadlock",
    "state": "WA",
    "zip": "98339-9572",
    "phone": "(360) 731-6611",
    "lat": 48.0328,
    "lng": -122.7642,
    "website": null,
    "hours": null,
    "revenue": 13909,
    "rep": "Danny Thoren"
  },
  {
    "name": "Super Chronic Club Mount Vernon",
    "address": "6326 MARTIN WAY E STE 103",
    "city": "Mount Vernon",
    "state": "WA",
    "zip": "98516-5561",
    "phone": "(206) 412-7285",
    "lat": 47.0508,
    "lng": -122.7971,
    "website": null,
    "hours": null,
    "revenue": 13538,
    "rep": "Jeremy Schmidt"
  },
  {
    "name": "Shelton Cannabis",
    "address": "9034 BEAVER VALLEY ROAD",
    "city": "Shelton",
    "state": "WA",
    "zip": "98325-8781",
    "phone": "(206) 681-8394",
    "lat": 48.0115,
    "lng": -122.7674,
    "website": null,
    "hours": null,
    "revenue": 13352,
    "rep": "Caitlin Stoner"
  },
  {
    "name": "High Society Everett",
    "address": "1824 BROADWAY",
    "city": "Everett",
    "state": "WA",
    "zip": "98201-2349",
    "phone": "(206) 307-1651",
    "lat": 47.9929,
    "lng": -122.2015,
    "website": null,
    "hours": null,
    "revenue": 13148,
    "rep": "Johnny Wilson"
  },
  {
    "name": "Star Outlet",
    "address": "7157 GUIDE MERIDIAN RD #3",
    "city": "Lynden",
    "state": "WA",
    "zip": "98264-9213",
    "phone": "(360) 868-6493",
    "lat": 48.9008,
    "lng": -122.4861,
    "website": null,
    "hours": null,
    "revenue": 12835,
    "rep": "Danny Thoren"
  },
  {
    "name": "Hashtag Redmond",
    "address": "7829 LEARY WAY NE",
    "city": "Redmond",
    "state": "WA",
    "zip": "98052-4338",
    "phone": "(206) 650-8928",
    "lat": 47.6733,
    "lng": -122.1235,
    "website": null,
    "hours": null,
    "revenue": 12788,
    "rep": "Danny Thoren"
  },
  {
    "name": "Evolve Cannabis Kelso",
    "address": "9034 BEAVER VALLEY ROAD",
    "city": "Chimacum",
    "state": "WA",
    "zip": "98325-8781",
    "phone": "(206) 681-8394",
    "lat": 48.0115,
    "lng": -122.7674,
    "website": null,
    "hours": null,
    "revenue": 12743,
    "rep": "Caitlin Stoner"
  },
  {
    "name": "Belfair Cannabis Company",
    "address": "24090 NE STATE ROUTE 3 STE I",
    "city": "Belfair",
    "state": "WA",
    "zip": "98528-9665",
    "phone": "(404) 406-3054",
    "lat": 47.4534,
    "lng": -122.821,
    "website": null,
    "hours": null,
    "revenue": 12513,
    "rep": "Caitlin Stoner"
  },
  {
    "name": "Local Amster Seattle",
    "address": "3200 15TH AVE W UNIT B",
    "city": "Seattle",
    "state": "WA",
    "zip": "98119-1705",
    "phone": "(206) 369-9597",
    "lat": 47.6487,
    "lng": -122.3759,
    "website": null,
    "hours": null,
    "revenue": 12442,
    "rep": "Danny Thoren"
  },
  {
    "name": "Orchards Cannabis Market",
    "address": "11800 NE 65TH ST",
    "city": "Vancouver",
    "state": "WA",
    "zip": "98662-5552",
    "phone": "(360) 798-7194",
    "lat": 45.6703,
    "lng": -122.5513,
    "website": null,
    "hours": null,
    "revenue": 12294,
    "rep": "Ashlea Underwood"
  },
  {
    "name": "Western Bud Burlington",
    "address": "20291 SR 20 UNIT 2",
    "city": "Burlington",
    "state": "WA",
    "zip": "98233-4016",
    "phone": "(206) 362-4444",
    "lat": 48.4831,
    "lng": -122.3073,
    "website": null,
    "hours": null,
    "revenue": 12023,
    "rep": "Caitlin Stoner"
  },
  {
    "name": "Cloud 9 - Cheney",
    "address": "5952 AIRPORT RD STE A",
    "city": "Cheney",
    "state": "WA",
    "zip": "99163-8958",
    "phone": "(425) 351-8932",
    "lat": 46.7388,
    "lng": -117.0531,
    "website": null,
    "hours": null,
    "revenue": 11982,
    "rep": "Scotland Schieber"
  },
  {
    "name": "Sage Shop Oroville",
    "address": "309 N MAIN ST",
    "city": "Omak",
    "state": "WA",
    "zip": "98841-9745",
    "phone": "(509) 322-5286",
    "lat": 48.4144,
    "lng": -119.5297,
    "website": null,
    "hours": null,
    "revenue": 11964,
    "rep": "Jeremy Schmidt"
  },
  {
    "name": "Pot Zone of Vancouver",
    "address": "7701 NE HWY 99 STE B",
    "city": "Vancouver",
    "state": "WA",
    "zip": "98665",
    "phone": "(509) 979-5989",
    "lat": 45.6775,
    "lng": -122.6617,
    "website": null,
    "hours": null,
    "revenue": 11840,
    "rep": "Ashlea Underwood"
  },
  {
    "name": "Cloud 9 Arlington",
    "address": "20308 77TH AVE NE STE B",
    "city": "Arlington",
    "state": "WA",
    "zip": "98223-4603",
    "phone": "(509) 599-0131",
    "lat": 48.1803,
    "lng": -122.1275,
    "website": null,
    "hours": null,
    "revenue": 11827,
    "rep": "Scotland Schieber"
  },
  {
    "name": "I-90 Greenhouse (It Is Lit)",
    "address": "1611 S SMITTYS BLVD  STE B",
    "city": "Ritzville",
    "state": "WA",
    "zip": "99169-2264",
    "phone": "(509) 660-0497",
    "lat": 47.1199,
    "lng": -118.3627,
    "website": null,
    "hours": null,
    "revenue": 11800,
    "rep": "Jeremy Schmidt"
  },
  {
    "name": "Hashtag Everett",
    "address": "10 SE EVERETT MALL WAY STE C&D",
    "city": "Everett",
    "state": "WA",
    "zip": "98208-8125",
    "phone": "(206) 650-8928",
    "lat": 47.9065,
    "lng": -122.233,
    "website": null,
    "hours": null,
    "revenue": 11689,
    "rep": "Danny Thoren"
  },
  {
    "name": "Western Bud Bellingham - NBA",
    "address": "1401 IOWA ST",
    "city": "Bellingham",
    "state": "WA",
    "zip": "98229-4763",
    "phone": "(206) 362-4444",
    "lat": 48.7566,
    "lng": -122.4559,
    "website": null,
    "hours": null,
    "revenue": 11660,
    "rep": "Caitlin Stoner"
  },
  {
    "name": "Greenhand Spokane",
    "address": "2424 N MONROE STREET",
    "city": "Spokane",
    "state": "WA",
    "zip": "99205-3349",
    "phone": "(206) 735-7072",
    "lat": 47.6802,
    "lng": -117.4264,
    "website": null,
    "hours": null,
    "revenue": 11482,
    "rep": "Jeremy Schmidt"
  },
  {
    "name": "The Bakeree Seattle",
    "address": "74 S LUCILE ST  STE 102",
    "city": "Seattle",
    "state": "WA",
    "zip": "98134-2444",
    "phone": "(206) 659-0574",
    "lat": 47.5536,
    "lng": -122.3356,
    "website": null,
    "hours": null,
    "revenue": 11250,
    "rep": "Caitlin Stoner"
  },
  {
    "name": "Cannabis Coast",
    "address": "362 LA PUSH RD",
    "city": "Forks",
    "state": "WA",
    "zip": "98331-9504",
    "phone": "(360) 374-4020",
    "lat": 47.9665,
    "lng": -124.411,
    "website": null,
    "hours": null,
    "revenue": 11227,
    "rep": "Danny Thoren"
  },
  {
    "name": "GoodBuds Quincy",
    "address": "5384 NW K RD STE A",
    "city": "Quincy",
    "state": "WA",
    "zip": "98848",
    "phone": "(360) 981-9495",
    "lat": 47.1679,
    "lng": -119.7266,
    "website": null,
    "hours": null,
    "revenue": 11133,
    "rep": "Jeremy Schmidt"
  },
  {
    "name": "Mister Buds",
    "address": "536 MARINE DR STE B",
    "city": "Port Angeles",
    "state": "WA",
    "zip": "98363-2230",
    "phone": "(360) 797-1966",
    "lat": 48.1219,
    "lng": -123.4442,
    "website": null,
    "hours": null,
    "revenue": 10976,
    "rep": "Caitlin Stoner"
  },
  {
    "name": "B Street Bud",
    "address": "400 BURDIN AVE",
    "city": "Grand Coulee",
    "state": "WA",
    "zip": "99133-5009",
    "phone": "(509) 592-9334",
    "lat": 47.9433,
    "lng": -119.0063,
    "website": null,
    "hours": null,
    "revenue": 10470,
    "rep": "Jeremy Schmidt"
  },
  {
    "name": "High End Marketplace - NBA",
    "address": "1924 BROADWAY ST STE A",
    "city": "Vancouver",
    "state": "WA",
    "zip": "98663-3380",
    "phone": "(360) 695-3612",
    "lat": 45.6365,
    "lng": -122.6706,
    "website": null,
    "hours": null,
    "revenue": 10378,
    "rep": "Caitlin Stoner"
  },
  {
    "name": "Piece of Mind Pullman",
    "address": "100 E MAPLE ST STE A",
    "city": "Pullman",
    "state": "WA",
    "zip": "98225-5006",
    "phone": "(206) 229-1067",
    "lat": 48.7474,
    "lng": -122.4823,
    "website": null,
    "hours": null,
    "revenue": 10258,
    "rep": "Johnny Wilson"
  },
  {
    "name": "Ganjavita",
    "address": "23441 NE STATE ROUTE 3",
    "city": "Belfair",
    "state": "WA",
    "zip": "98528",
    "phone": "(253) 514-3949",
    "lat": 47.4471,
    "lng": -122.8306,
    "website": null,
    "hours": null,
    "revenue": 10031,
    "rep": "Danny Thoren"
  },
  {
    "name": "Greens On Gold",
    "address": "1039 S GOLD ST",
    "city": "Centralia",
    "state": "WA",
    "zip": "98531-3711",
    "phone": "(360) 748-0807",
    "lat": 46.7048,
    "lng": -122.9563,
    "website": null,
    "hours": null,
    "revenue": 9959,
    "rep": "Jeremy Schmidt"
  },
  {
    "name": "The Top Shelf",
    "address": "1305 S HAYFORD RD STE A",
    "city": "Airway Heights",
    "state": "WA",
    "zip": "99224-5276",
    "phone": "(509) 474-1050",
    "lat": 47.6435,
    "lng": -117.5605,
    "website": null,
    "hours": null,
    "revenue": 9791,
    "rep": "Jeremy Schmidt"
  },
  {
    "name": "Cannablyss - NBA",
    "address": "2705 HARTFORD DR STE A",
    "city": "Lake Stevens",
    "state": "WA",
    "zip": "98258-9204",
    "phone": "(425) 327-7529",
    "lat": 48.0217,
    "lng": -122.0543,
    "website": null,
    "hours": null,
    "revenue": 9700,
    "rep": "Scotland Schieber"
  },