[
  {
    "name": "Main Street Marijuana - East Vancouver",
    "address": "16219 SE 12th St, Suite 104",
    "city": "Vancouver",
    "state": "WA",
    "zip": "98683",
    "phone": "(360) 984-3881",
    "lat": 45.6204,
    "lng": -122.4961,
    "website": "https://www.mainstmj.com/east-vancouver-direction/",
    "hours": "Daily 8a-10:55p"
  },
  {
    "name": "Greenside Recreational - Des Moines",
    "address": "23407 Pacific Hwy S",
    "city": "Des Moines",
    "state": "WA",
    "zip": "98198",
    "phone": "(206) 878-6470",
    "lat": 47.4063,
    "lng": -122.2966,
    "website": "https://greensiderec.com/dispensaries/des-moines/",
    "hours": "M-F 8a-11:45p"
  },
  {
    "name": "Greener Daze Cannabis (fka Green Day)",
    "address": "945 Washington Way, Suite 121",
    "city": "Longview",
    "state": "WA",
    "zip": "98632",
    "phone": "(360) 703-6050",
    "lat": 46.1382,
    "lng": -122.9382,
    "website": "https://greenerdazecannabis.com/",
    "hours": "Daily 8a-10p"
  },
  {
    "name": "Lucky Leaf Co. - Pasco Rd 68",
    "address": "3501 Rd 68, Ste 104",
    "city": "Pasco",
    "state": "WA",
    "zip": "99301",
    "phone": "(509) 380-0026",
    "lat": 46.2581,
    "lng": -119.1759,
    "website": "https://luckyleaf.co/",
    "hours": "Daily 8a-11p"
  },
  {
    "name": "Uncle Ike's - White Center",
    "address": "9822 15th Ave SW",
    "city": "Seattle",
    "state": "WA",
    "zip": "98106",
    "phone": "(206) 420-5759",
    "lat": 47.5176,
    "lng": -122.3548,
    "website": "https://ikes.com/dispensary-location/outlet-at-white-center",
    "hours": "Daily 8a-11:45p"
  },
  {
    "name": "Main Street Marijuana - North Vancouver",
    "address": "7908 NE Highway 99",
    "city": "Vancouver",
    "state": "WA",
    "zip": "98665",
    "phone": "(360) 787-7318",
    "lat": 45.6837,
    "lng": -122.6638,
    "website": "https://www.mainstmj.com/",
    "hours": "Daily 8a-10:55p"
  },
  {
    "name": "A Greener Today - Walla Walla",
    "address": "655 W Poplar St",
    "city": "Walla Walla",
    "state": "WA",
    "zip": "99362",
    "phone": "(509) 876-8660",
    "lat": 46.0682,
    "lng": -118.3491,
    "website": "https://agreenertoday.com/stores/walla-walla/",
    "hours": "M-F 8a-10p"
  },
  {
    "name": "The Herbery - Chkalov",
    "address": "330 NE Chkalov Dr, Suite D",
    "city": "Vancouver",
    "state": "WA",
    "zip": "98684",
    "phone": "(360) 776-3001",
    "lat": 45.6248,
    "lng": -122.5379,
    "website": "https://www.theherberynw.com/the-herbery-chkalov-cannabis/menu",
    "hours": "Daily 8a-11p"
  },
  {
    "name": "Main Street Marijuana - Downtown",
    "address": "2314 Main St",
    "city": "Vancouver",
    "state": "WA",
    "zip": "98660",
    "phone": "(360) 828-7737",
    "lat": 45.6398,
    "lng": -122.6708,
    "website": "https://www.mainstmj.com/",
    "hours": "Daily 8a-10:55p"
  },
  {
    "name": "Green2Go - Kennewick",
    "address": "214307 E SR 397",
    "city": "Kennewick",
    "state": "WA",
    "zip": "99337",
    "phone": "(509) 420-0000",
    "lat": 46.1796,
    "lng": -119.0367,
    "website": "https://g2grec.com/kennewick/",
    "hours": "Daily 9a-10p"
  },
  {
    "name": "Main Street Marijuana - Orchards",
    "address": "12300 NE Fourth Plain Blvd, Ste B",
    "city": "Vancouver",
    "state": "WA",
    "zip": "98682",
    "phone": "(360) 729-7125",
    "lat": 45.6627,
    "lng": -122.5414,
    "website": "https://www.mainstmj.com/orchards-location/",
    "hours": "Daily 8a-10:55p"
  },
  {
    "name": "Uncle Ando's Wurld of Weed",
    "address": "1905 Johnson Rd",
    "city": "Centralia",
    "state": "WA",
    "zip": "98531",
    "phone": "(360) 736-0564",
    "lat": 46.7290,
    "lng": -122.9750,
    "website": "https://uncleandos.com/",
    "hours": "Daily 9a-10p"
  },
  {
    "name": "Nirvana Cannabis Company - Tri-Cities",
    "address": "4950 Arena Rd",
    "city": "Richland",
    "state": "WA",
    "zip": "99352",
    "phone": "(509) 572-2310",
    "lat": 46.2604,
    "lng": -119.2880,
    "website": "https://nirvanacannabis.company/richland-menu/",
    "hours": "M-Sa 8a-11:45p, Su 8a-11p"
  },
  {
    "name": "Green2Go - Pasco",
    "address": "5804 Rd 90, Ste G",
    "city": "Pasco",
    "state": "WA",
    "zip": "99301",
    "phone": "(509) 420-0000",
    "lat": 46.2693,
    "lng": -119.2118,
    "website": "https://g2grec.com/",
    "hours": "Daily 8a-11p"
  },
  {
    "name": "Lucky Leaf Co. - Downtown Pasco",
    "address": "528 W Clark St",
    "city": "Pasco",
    "state": "WA",
    "zip": "99301",
    "phone": "(509) 380-0036",
    "lat": 46.2349,
    "lng": -119.1051,
    "website": "https://luckyleaf.co/",
    "hours": "Daily 8a-11p"
  },
  {
    "name": "Kush 21 - Sodo",
    "address": "2215 4th Ave S",
    "city": "Seattle",
    "state": "WA",
    "zip": "98134",
    "phone": "(206) 624-4045",
    "lat": 47.5851,
    "lng": -122.3320,
    "website": "https://kush21.com/",
    "hours": "Daily 8a-12a"
  },
  {
    "name": "Seattle Tonics",
    "address": "12059 Aurora Ave N",
    "city": "Seattle",
    "state": "WA",
    "zip": "98133",
    "phone": "(206) 363-6000",
    "lat": 47.7150,
    "lng": -122.3441,
    "website": "https://www.seattletonics.com/",
    "hours": "M-F 8a-10p, Sa 10a-10p, Su 10a-8p"
  },
  {
    "name": "Uncle Ike's - Lake City",
    "address": "11306 Lake City Way NE",
    "city": "Seattle",
    "state": "WA",
    "zip": "98125",
    "phone": "(206) 436-0044",
    "lat": 47.7117,
    "lng": -122.2922,
    "website": "https://ikes.com/dispensary-location/lake-city",
    "hours": "Daily 8a-11:45p"
  },
  {
    "name": "Commencement Bay Cannabis - Black",
    "address": "218 Norpoint Way NE",
    "city": "Tacoma",
    "state": "WA",
    "zip": "98422",
    "phone": "(253) 517-7265",
    "lat": 47.3010,
    "lng": -122.4060,
    "website": "https://commencementbaycannabis.com/cbc-black-menu/",
    "hours": "Daily 8a-11:30p"
  },
  {
    "name": "Kush21 - Buckley",
    "address": "29393 WA-410",
    "city": "Buckley",
    "state": "WA",
    "zip": "98321",
    "phone": "(360) 999-3650",
    "lat": 47.1655,
    "lng": -122.0289,
    "website": "https://kush21.com/",
    "hours": "Daily 8a-12a"
  },
  {
    "name": "Remedy Tulalip",
    "address": "9226 34th Ave NE",
    "city": "Marysville",
    "state": "WA",
    "zip": "98271",
    "phone": "(360) 716-3200",
    "lat": 48.0837,
    "lng": -122.1810,
    "website": "https://remedytulalip.com/",
    "hours": "Daily 7a-10p"
  },
  {
    "name": "Happy Time Dispensary - Yakima",
    "address": "1315 N 1st St, Ste A",
    "city": "Yakima",
    "state": "WA",
    "zip": "98901",
    "phone": "(509) 571-1106",
    "lat": 46.6198,
    "lng": -120.5115,
    "website": "https://happytimeweed.com/yakima",
    "hours": "M-F 8a-11:30p, Sa-Su 9a-11:30p"
  },
  {
    "name": "Kush 21 - Burien",
    "address": "17730 Ambaum Blvd S, Ste D",
    "city": "Seattle",
    "state": "WA",
    "zip": "98148",
    "phone": "(206) 402-6955",
    "lat": 47.4517,
    "lng": -122.3469,
    "website": "https://kush21.com/",
    "hours": "Daily 8a-12a"
  },
  {
    "name": "Canna4Life",
    "address": "721 6th St",
    "city": "Clarkston",
    "state": "WA",
    "zip": "99403",
    "phone": "(509) 295-8218",
    "lat": 46.4187,
    "lng": -117.0463,
    "website": "https://canna4life.com/",
    "hours": "M-Sa 8a-11p, Su 9a-10p"
  },
  {
    "name": "Apex Cannabis - Moses Lake",
    "address": "955 W Broadway Ave",
    "city": "Moses Lake",
    "state": "WA",
    "zip": "98837",
    "phone": "(509) 765-4216",
    "lat": 47.1293,
    "lng": -119.2882,
    "website": "https://www.apexcannabis.com/locations/moseslake/",
    "hours": "Daily 8a-11p"
  },
  {
    "name": "The Herbery - Fourth Plain",
    "address": "12001 NE Fourth Plain Blvd",
    "city": "Vancouver",
    "state": "WA",
    "zip": "98682",
    "phone": "(360) 776-3160",
    "lat": 45.6628,
    "lng": -122.5436,
    "website": "https://www.theherberynw.com/the-herbery-fourth-plain-cannabis",
    "hours": "Daily 8a-11p"
  },
  {
    "name": "Herban Market",
    "address": "3965 Bethel Rd SE, Ste 3",
    "city": "Port Orchard",
    "state": "WA",
    "zip": "98366",
    "phone": "(360) 443-2859",
    "lat": 47.5106,
    "lng": -122.6296,
    "website": "https://www.herbanmarket.com/",
    "hours": "Daily 8a-11p"
  },
  {
    "name": "High 5 Cannabis - Vancouver",
    "address": "6511 NE 137th Ave, Ste C",
    "city": "Vancouver",
    "state": "WA",
    "zip": "98682",
    "phone": "(360) 947-5404",
    "lat": 45.6470,
    "lng": -122.5224,
    "website": "https://www.high5cannabis.com/",
    "hours": "Daily 8a-11p"
  },
  {
    "name": "A Greener Today - Bothell",
    "address": "19315 Bothell Everett Hwy, Ste 1",
    "city": "Bothell",
    "state": "WA",
    "zip": "98012",
    "phone": "(425) 419-4161",
    "lat": 47.8327,
    "lng": -122.2191,
    "website": "https://agreenertoday.com/stores/bothell/",
    "hours": "Daily 8a-11p"
  },
  {
    "name": "Fire & Frost Cannabis",
    "address": "6818 NE 4th Plain Blvd, Ste B",
    "city": "Vancouver",
    "state": "WA",
    "zip": "98661",
    "phone": "(360) 213-1011",
    "lat": 45.6588,
    "lng": -122.6020,
    "website": "https://fireandfrostcannabis.com/",
    "hours": "M-Sa 8a-11p"
  },
  {
    "name": "Uncle Ike's - Olive Way",
    "address": "1411 E Olive Way",
    "city": "Seattle",
    "state": "WA",
    "zip": "98122",
    "phone": "(206) 330-0498",
    "lat": 47.6190,
    "lng": -122.3225,
    "website": "https://ikes.com/dispensary-location/olive-way",
    "hours": "Daily 8a-11:45p"
  },
  {
    "name": "Uncle Ike's - Central District",
    "address": "2310 E Union St",
    "city": "Seattle",
    "state": "WA",
    "zip": "98122",
    "phone": "(206) 420-4661",
    "lat": 47.6147,
    "lng": -122.3033,
    "website": "https://ikes.com/dispensary-location/central-district",
    "hours": "Daily 8a-11:45p"
  },
  {
    "name": "Local Roots - Yakima",
    "address": "2 N 11th St",
    "city": "Yakima",
    "state": "WA",
    "zip": "98901",
    "phone": "(509) 426-2436",
    "lat": 46.6011,
    "lng": -120.4979,
    "website": "https://mylocalroots.com/local-roots-yakima/",
    "hours": "Daily 8a-11:45p"
  },
  {
    "name": "Lidz Cannabis - 38th Tacoma",
    "address": "3213 S 38th St",
    "city": "Tacoma",
    "state": "WA",
    "zip": "98409",
    "phone": "(253) 292-0197",
    "lat": 47.2196,
    "lng": -122.4612,
    "website": "https://lidzcannabis.com/stores/lidz-cannabis-dispensary-38th-street-tacoma-wa/",
    "hours": "Daily 8a-12a"
  },
  {
    "name": "The Herbery - 78th",
    "address": "1401 NE 78th St",
    "city": "Vancouver",
    "state": "WA",
    "zip": "98665",
    "phone": "(360) 841-7500",
    "lat": 45.6818,
    "lng": -122.6586,
    "website": "https://www.theherberynw.com/",
    "hours": "Daily 8a-11p"
  },
  {
    "name": "The Happy Crop Shoppe - East Wenatchee",
    "address": "50 Rock Island Rd",
    "city": "East Wenatchee",
    "state": "WA",
    "zip": "98802",
    "phone": "(509) 888-1597",
    "lat": 47.4072,
    "lng": -120.2843,
    "website": "https://thehappycropshoppe.com/east-wenatchee/",
    "hours": "Daily 8a-10p"
  },
  {
    "name": "PRC - Arlington",
    "address": "5200 172nd St NE, Ste F101",
    "city": "Arlington",
    "state": "WA",
    "zip": "98223",
    "phone": "(360) 550-9333",
    "lat": 48.1500,
    "lng": -122.1733,
    "website": "https://wheresweed.com/washington/arlington/marijuana-dispensaries/prc-172nd-street",
    "hours": "Daily 8a-11p"
  },
  {
    "name": "Joint Rivers",
    "address": "2121 Auburn Way S",
    "city": "Auburn",
    "state": "WA",
    "zip": "98002",
    "phone": "(253) 263-8899",
    "lat": 47.2854,
    "lng": -122.2050,
    "website": "https://jointrivers.com/",
    "hours": "Daily 7a-11p"
  },
  {
    "name": "Commencement Bay Cannabis - Yellow (Fife)",
    "address": "5402 Pacific Hwy E",
    "city": "Fife",
    "state": "WA",
    "zip": "98424",
    "phone": "(253) 517-7265",
    "lat": 47.2398,
    "lng": -122.3724,
    "website": "https://commencementbaycannabis.com/cbc-yellow-menu/",
    "hours": "Daily 8a-11:30p"
  },
  {
    "name": "Zips Cannabis on 176th",
    "address": "10406 Sunrise Blvd E",
    "city": "Puyallup",
    "state": "WA",
    "zip": "98374",
    "phone": "(253) 256-2244",
    "lat": 47.1346,
    "lng": -122.2855,
    "website": "https://zipscannabis.com/puyallup-176th",
    "hours": "Daily 8a-12a"
  },
  {
    "name": "Walla Walla Weedery",
    "address": "1603 E Isaacs Ave",
    "city": "Walla Walla",
    "state": "WA",
    "zip": "99362",
    "phone": "(509) 876-4279",
    "lat": 46.0732,
    "lng": -118.3122,
    "website": "https://www.wallawallaweedery.com/",
    "hours": "Daily 8a-11p"
  },
  {
    "name": "Locals Canna House",
    "address": "9616 E Sprague Ave",
    "city": "Spokane Valley",
    "state": "WA",
    "zip": "99206",
    "phone": "(509) 413-2796",
    "lat": 47.6537,
    "lng": -117.2580,
    "website": "https://localscannahouse.com/",
    "hours": "Daily 8a-11p"
  },
  {
    "name": "The Green Nugget - Spokane",
    "address": "322 E Francis Ave, Ste A",
    "city": "Spokane",
    "state": "WA",
    "zip": "99208",
    "phone": "(509) 309-2130",
    "lat": 47.7202,
    "lng": -117.4118,
    "website": "https://thegreennugget.com/spokane/",
    "hours": "Daily 8:30a-10p"
  },
  {
    "name": "Northwest Cannabis Connection",
    "address": "11522 Canyon Rd E",
    "city": "Puyallup",
    "state": "WA",
    "zip": "98373",
    "phone": "(253) 292-0444",
    "lat": 47.1283,
    "lng": -122.3744,
    "website": "https://www.nwcannabisconnections.com/",
    "hours": "Daily 8a-11p"
  },
  {
    "name": "Shawn Kemp's Cannabis - Belltown",
    "address": "3035 1st Ave",
    "city": "Seattle",
    "state": "WA",
    "zip": "98121",
    "phone": "(206) 345-0009",
    "lat": 47.6151,
    "lng": -122.3506,
    "website": "https://www.kempscannabis.com/",
    "hours": "Daily 8a-11:45p"
  },
  {
    "name": "A Greener Today - Gold Bar",
    "address": "17002 415th Ave SE, Ste A2",
    "city": "Gold Bar",
    "state": "WA",
    "zip": "98251",
    "phone": "(360) 217-8905",
    "lat": 47.8589,
    "lng": -121.6985,
    "website": "https://agreenertoday.com/stores/gold-bar/",
    "hours": "Daily 8a-11p"
  },
  {
    "name": "Buddy's",
    "address": "420 Sunset Blvd N",
    "city": "Renton",
    "state": "WA",
    "zip": "98057",
    "phone": "(425) 226-9333",
    "lat": 47.4942,
    "lng": -122.2110,
    "website": "https://shopbuddys.com/",
    "hours": "Daily 8a-11p"
  },
  {
    "name": "The Evergreen Market - Auburn",
    "address": "402 16th St NE, Ste A-100",
    "city": "Auburn",
    "state": "WA",
    "zip": "98002",
    "phone": "(253) 216-2452",
    "lat": 47.3196,
    "lng": -122.2241,
    "website": "https://evergreenmarket.com/auburn-recreational/",
    "hours": "Daily 8a-11:45p"
  },
  {
    "name": "Bud Barn - Yelm",
    "address": "10619 Vancil Rd SE, Ste B",
    "city": "Yelm",
    "state": "WA",
    "zip": "98597",
    "phone": "(360) 960-1220",
    "lat": 46.9447,
    "lng": -122.6038,
    "website": "https://shopbudbarn.com/yelm/",
    "hours": "Daily 8a-11:50p"
  },
  {
    "name": "Euphorium - Covington",
    "address": "27623 Covington Way SE",
    "city": "Covington",
    "state": "WA",
    "zip": "98042",
    "phone": "(253) 455-4582",
    "lat": 47.3578,
    "lng": -122.1239,
    "website": "https://euphorium502.com/euphorium-covington/",
    "hours": "M-Sa 8a-11:45p, Su 9a-10p"
  },
  {
    "name": "Dank's Warehouse - Renton",
    "address": "14300 SE Petrovitsky Rd",
    "city": "Renton",
    "state": "WA",
    "zip": "98058",
    "phone": "(425) 572-6439",
    "lat": 47.4467,
    "lng": -122.1605,
    "website": "https://dankswarehouse.com/",
    "hours": "Daily 8a-11:45p"
  },
  {
    "name": "The Gallery - Spanaway",
    "address": "21802 Mountain Hwy E",
    "city": "Spanaway",
    "state": "WA",
    "zip": "98387",
    "phone": "(253) 375-7840",
    "lat": 47.0641,
    "lng": -122.3107,
    "website": "https://thegalleryco.com/the-shops/spanaway-mt-hwy/",
    "hours": "Daily 8a-11:30p"
  },
  {
    "name": "Dank's Warehouse - Edmonds",
    "address": "7207 212th St SW",
    "city": "Edmonds",
    "state": "WA",
    "zip": "98026",
    "phone": "(425) 670-0690",
    "lat": 47.8095,
    "lng": -122.3413,
    "website": "https://dankswarehouse.com/",
    "hours": "Daily 8a-11p"
  },
  {
    "name": "Zips Cannabis on 6th Ave",
    "address": "5924 6th Ave",
    "city": "Tacoma",
    "state": "WA",
    "zip": "98406",
    "phone": "(253) 572-5544",
    "lat": 47.2607,
    "lng": -122.4926,
    "website": "https://zipscannabis.com/tacoma-6th",
    "hours": "M-Sa 8a-12a"
  },
  {
    "name": "Clear Choice Cannabis - 72nd Tacoma",
    "address": "317 S 72nd St",
    "city": "Tacoma",
    "state": "WA",
    "zip": "98408",
    "phone": "(253) 352-9881",
    "lat": 47.1832,
    "lng": -122.4423,
    "website": "https://findclearchoice.com/stores/clear-choice-tacoma-72nd/",
    "hours": "Daily 8a-11:55p"
  },
  {
    "name": "The Slow Burn - 40th Ave",
    "address": "1300 N 40th Ave, Ste 111",
    "city": "Yakima",
    "state": "WA",
    "zip": "98908",
    "phone": "(509) 853-8420",
    "lat": 46.6101,
    "lng": -120.5697,
    "website": "https://www.theslowburn.com/",
    "hours": "Daily 8a-11p"
  },
  {
    "name": "The Marijuana Mercantile",
    "address": "7212 SR-92, Ste 5",
    "city": "Granite Falls",
    "state": "WA",
    "zip": "98252",
    "phone": "(360) 572-0013",
    "lat": 48.0840,
    "lng": -121.9758,
    "website": "https://themarijuanamercantile.com/",
    "hours": "Daily 8a-10p"
  },
  {
    "name": "Kush21 Everett - Evergreen Way",
    "address": "8911 Evergreen Way",
    "city": "Everett",
    "state": "WA",
    "zip": "98208",
    "phone": "(425) 374-3737",
    "lat": 47.9170,
    "lng": -122.2362,
    "website": "https://kush21.com/kush21-everett/",
    "hours": "Daily 8a-12a"
  },
  {
    "name": "The Stash Box",
    "address": "3108 A St SE, Ste F",
    "city": "Auburn",
    "state": "WA",
    "zip": "98002",
    "phone": "(253) 397-4895",
    "lat": 47.2856,
    "lng": -122.2236,
    "website": "https://www.thestashboxllc.com/",
    "hours": "M-Th 8a-10p, F-Sa 8a-11p, Su 8a-9p"
  },
  {
    "name": "Cannabis & Glass - Liberty Lake",
    "address": "25101 E Appleway Ave",
    "city": "Liberty Lake",
    "state": "WA",
    "zip": "99019",
    "phone": "(509) 866-5129",
    "lat": 47.6643,
    "lng": -117.1167,
    "website": "https://cannabisandglass.com/",
    "hours": "Daily 8a-11p"
  }
]
